[
  {
    "id": 1,
    "name": "Dar El Beida | أعط بيدا",
    "type": "School",
    "lat": 18.0272461,
    "lng": -15.9891821,
    "quartier": "22G6+V8W",
    "created_at": "2025-07-16T15:13:59.469076",
    "google_place_id": "ChIJww0jyE9Plg4R3s5PkVI0pyM",
    "rating": 3.9,
    "address": "22G6+V8W"
  },
  {
    "id": 2,
    "name": "tours du savoir | جولات المعرفة",
    "type": "School",
    "lat": 18.0471466,
    "lng": -15.9580995,
    "quartier": "22WR+VQ2, Nouakchott",
    "created_at": "2025-07-16T15:13:59.469076",
    "google_place_id": "ChIJQRUbLRtSlg4ROZwfpaTkpyA",
    "rating": null,
    "address": "22WR+VQ2, Nouakchott"
  },
  {
    "id": 3,
    "name": "Scolaire sheikh hamaho allah | Scolaire Sheikh لدعوة الله",
    "type": "School",
    "lat": 18.05311469999999,
    "lng": -15.9704434,
    "quartier": "323H+6RV, Nouakchott",
    "created_at": "2025-07-16T15:13:59.469076",
    "google_place_id": "ChIJj8fyJfZNlg4R_2N__YYrjtI",
    "rating": 3.8,
    "address": "323H+6RV, Nouakchott"
  },
  {
    "id": 4,
    "name": "Lycce riyad | Lycce A Riyad",
    "type": "School",
    "lat": 18.0247055,
    "lng": -15.9632348,
    "quartier": "22FP+VPJ",
    "created_at": "2025-07-16T15:13:59.469076",
    "google_place_id": "ChIJcU8bbiFRlg4R_CUnzE0SD-I",
    "rating": null,
    "address": "22FP+VPJ"
  },
  {
    "id": 5,
    "name": "Seydou diallo | سيدو ديالو",
    "type": "School",
    "lat": 18.0264125,
    "lng": -15.9699531,
    "quartier": "22GJ+H27, Nouakchott",
    "created_at": "2025-07-16T15:13:59.469076",
    "google_place_id": "ChIJ8eZNcDZRlg4RcwpC_0I6aU8",
    "rating": null,
    "address": "22GJ+H27, Nouakchott"
  },
  {
    "id": 6,
    "name": "Collège Arafat 3 | عرفات 3 كلية",
    "type": "School",
    "lat": 18.0292047,
    "lng": -15.9715699,
    "quartier": "22HH+M9, Nouakchott",
    "created_at": "2025-07-16T15:13:59.469076",
    "google_place_id": "ChIJuTV1qdRPlg4RBRom9x2uRXs",
    "rating": null,
    "address": "22HH+M9, Nouakchott"
  },
  {
    "id": 7,
    "name": "ثانوية عرفات 4 | Arafat High School 4",
    "type": "School",
    "lat": 18.0357999,
    "lng": -15.9649153,
    "quartier": "22PP+828, Nouakchott",
    "created_at": "2025-07-16T15:13:59.469076",
    "google_place_id": "ChIJp__xBAtRlg4R74kqN_LfT3k",
    "rating": null,
    "address": "22PP+828, Nouakchott"
  },
  {
    "id": 8,
    "name": "MHSOE | mhsoe",
    "type": "School",
    "lat": 18.0263518,
    "lng": -15.9717107,
    "quartier": "22GH+G8V, Nouakchott",
    "created_at": "2025-07-16T15:13:59.469076",
    "google_place_id": "ChIJxZZ5oCtPlg4RrP1B1VrpQ7E",
    "rating": null,
    "address": "22GH+G8V, Nouakchott"
  },
  {
    "id": 9,
    "name": "ECOLE LES ETOILES DE NOUAKCHOTT | مدرسة Nouakchott Les Etoiles",
    "type": "School",
    "lat": 18.021583,
    "lng": -15.9643817,
    "quartier": "22CP+J6Q, Nouakchott",
    "created_at": "2025-07-16T15:13:59.469076",
    "google_place_id": "ChIJa4CIg11Nlg4RuQ2RuvK0NkQ",
    "rating": 4.5,
    "address": "22CP+J6Q, Nouakchott"
  },
  {
    "id": 10,
    "name": "Abdoulahi sow | عبدهي زرع",
    "type": "School",
    "lat": 18.0280793,
    "lng": -15.9572274,
    "quartier": "22HV+64J, Nouakchott",
    "created_at": "2025-07-16T15:13:59.469076",
    "google_place_id": "ChIJA1-7LwBRlg4RE9cZ63EgWKo",
    "rating": null,
    "address": "22HV+64J, Nouakchott"
  },
  {
    "id": 11,
    "name": "Arafat | عرفات",
    "type": "School",
    "lat": 18.020197,
    "lng": -15.9622286,
    "quartier": "22CQ+33, Nouakchott",
    "created_at": "2025-07-16T15:13:59.469076",
    "google_place_id": "ChIJYbmvQwBRlg4RSWufdtwLL48",
    "rating": null,
    "address": "22CQ+33, Nouakchott"
  },
  {
    "id": 12,
    "name": "Djigo | ديجو",
    "type": "School",
    "lat": 18.019993,
    "lng": -15.9628183,
    "quartier": "228P+G8W, Nouakchott",
    "created_at": "2025-07-16T15:13:59.469076",
    "google_place_id": "ChIJn3j6JgBRlg4RY2nlHm7LvBI",
    "rating": 5,
    "address": "228P+G8W, Nouakchott"
  },
  {
    "id": 13,
    "name": "GSP Belly | نظام الأفضليات المعمم",
    "type": "School",
    "lat": 18.025564,
    "lng": -15.9752625,
    "quartier": "N 2, Nouakchott",
    "created_at": "2025-07-16T15:13:59.469076",
    "google_place_id": "ChIJI12QUgBPlg4RH41NZx6zGFM",
    "rating": 4,
    "address": "N 2, Nouakchott"
  },
  {
    "id": 14,
    "name": "مدرسة بلال إبن رباح École Bilal Ibn Rabah | École Bilal Ibn Rabah",
    "type": "School",
    "lat": 18.0202582,
    "lng": -15.9720627,
    "quartier": "22CH+453, Nouakchott",
    "created_at": "2025-07-16T15:13:59.469076",
    "google_place_id": "ChIJ_3dueABPlg4RqvDAmACVh1k",
    "rating": null,
    "address": "22CH+453, Nouakchott"
  },
  {
    "id": 15,
    "name": "École houseinn Arafat | مدرسة منزل عرفات",
    "type": "School",
    "lat": 18.0358002,
    "lng": -15.975152,
    "quartier": "22PF+8WH, Nouakchott",
    "created_at": "2025-07-16T15:13:59.469076",
    "google_place_id": "ChIJ_RuCTwBPlg4RczoMnvWC8pw",
    "rating": null,
    "address": "22PF+8WH, Nouakchott"
  },
  {
    "id": 16,
    "name": "قرية أجابر | Village d'Arsab",
    "type": "School",
    "lat": 18.0421737,
    "lng": -15.9662533,
    "quartier": "قرية أجابر, نواكشوط",
    "created_at": "2025-07-16T15:13:59.469076",
    "google_place_id": "ChIJM2P1DqFTlg4RKs3ycZg6lMQ",
    "rating": null,
    "address": "قرية أجابر, نواكشوط"
  },
  {
    "id": 17,
    "name": "مدرسة مكة المكرمة | École makkah al -Mukarramah",
    "type": "School",
    "lat": 18.0171511,
    "lng": -15.9584308,
    "quartier": "228R+VJ8, Unnamed Road، نواكشوط،, Nouakchott",
    "created_at": "2025-07-16T15:13:59.469076",
    "google_place_id": "ChIJ4bOfxpxRlg4RR6oDJaks8CY",
    "rating": 4,
    "address": "228R+VJ8, Unnamed Road، نواكشوط،, Nouakchott"
  },
  {
    "id": 18,
    "name": "أهل السباعي لعويسيات | Le peuple d'Al-Sebaei pour Awhias",
    "type": "School",
    "lat": 18.0421596,
    "lng": -15.9678027,
    "quartier": "ق 3 عرفات, نواكشوط",
    "created_at": "2025-07-16T15:13:59.469076",
    "google_place_id": "ChIJR4S9ZPRTlg4RGHmixEnYH8c",
    "rating": null,
    "address": "ق 3 عرفات, نواكشوط"
  },
  {
    "id": 19,
    "name": "Ablaye | أخت",
    "type": "School",
    "lat": 18.0406036,
    "lng": -15.9577624,
    "quartier": "22RR+6VX, Nouakchott",
    "created_at": "2025-07-16T15:13:59.469076",
    "google_place_id": "ChIJf1aexRxTlg4Rh1q1q0Ow3Ls",
    "rating": 3.7,
    "address": "22RR+6VX, Nouakchott"
  },
  {
    "id": 20,
    "name": "محظرة قرآنية | Coranique interdit",
    "type": "School",
    "lat": 18.0429156,
    "lng": -15.9633204,
    "quartier": "22VP+5M7, نواكشوط",
    "created_at": "2025-07-16T15:13:59.469076",
    "google_place_id": "ChIJbV1xfXNTlg4RP0edTBjSlRA",
    "rating": 3,
    "address": "22VP+5M7, نواكشوط"
  },
  {
    "id": 21,
    "name": "ملاحف | Clous",
    "type": "School",
    "lat": 18.0448488,
    "lng": -15.9642472,
    "quartier": "22VP+R9G, Nouakchott",
    "created_at": "2025-07-16T15:13:59.469076",
    "google_place_id": "ChIJPQ6_YABTlg4R-8ZaNMT1SOU",
    "rating": null,
    "address": "22VP+R9G, Nouakchott"
  },
  {
    "id": 22,
    "name": "إبتدائية جبل الرحمة | École primaire Jabal Al -rahma",
    "type": "School",
    "lat": 18.0445372,
    "lng": -15.9685687,
    "quartier": "22VJ+RH7, عرفات، نواكشوط،, Nouakchott",
    "created_at": "2025-07-16T15:13:59.469076",
    "google_place_id": "ChIJ1RJKmERTlg4REpNl-8SPjAs",
    "rating": null,
    "address": "22VJ+RH7, عرفات، نواكشوط،, Nouakchott"
  },
  {
    "id": 23,
    "name": "مدرسة لمجيدري | École Lamidri",
    "type": "School",
    "lat": 18.0279374,
    "lng": -15.9818546,
    "quartier": "22H9+57, Nouakchott",
    "created_at": "2025-07-16T15:13:59.469076",
    "google_place_id": "ChIJwfar0UZPlg4Rx-Prc7EZ52s",
    "rating": null,
    "address": "22H9+57, Nouakchott"
  },
  {
    "id": 24,
    "name": "مدرسة أحمد زروق | École Ahmed Zarrouk",
    "type": "School",
    "lat": 18.045283,
    "lng": -15.9638923,
    "quartier": "22WP+4C9, Nouakchott",
    "created_at": "2025-07-16T15:13:59.469076",
    "google_place_id": "ChIJoXaA_69Tlg4RFFKB0QcshBg",
    "rating": null,
    "address": "22WP+4C9, Nouakchott"
  },
  {
    "id": 25,
    "name": "مدرسة الرياض 6 | École Riyad 6",
    "type": "School",
    "lat": 18.0152895,
    "lng": -15.9556122,
    "quartier": "228V+4Q6, نواكشوط،",
    "created_at": "2025-07-16T15:13:59.469076",
    "google_place_id": "ChIJZZ6nlUlRlg4RcMzfRHF0fEw",
    "rating": 4.1,
    "address": "228V+4Q6, نواكشوط،"
  },
  {
    "id": 26,
    "name": "School | مدرسة",
    "type": "School",
    "lat": 18.037813,
    "lng": -15.9808219,
    "quartier": "22Q9+4MF, Nouakchott",
    "created_at": "2025-07-16T15:13:59.469076",
    "google_place_id": "ChIJYxaAfaNNlg4R-MuRdJ52Ruw",
    "rating": null,
    "address": "22Q9+4MF, Nouakchott"
  },
  {
    "id": 27,
    "name": "Ksar | ksar",
    "type": "School",
    "lat": 18.031116,
    "lng": -15.9835598,
    "quartier": "22J8+9G3, 225 Rue Maarouf Ould Cheikh, Nouakchott",
    "created_at": "2025-07-16T15:13:59.469076",
    "google_place_id": "ChIJFykyCANPlg4RXSZEGKxGtNc",
    "rating": null,
    "address": "22J8+9G3, 225 Rue Maarouf Ould Cheikh, Nouakchott"
  },
  {
    "id": 28,
    "name": "لبيرات الحرة | Pour un gamin gratuit",
    "type": "School",
    "lat": 18.0159344,
    "lng": -15.9523451,
    "quartier": "Mauritanie",
    "created_at": "2025-07-16T15:13:59.469076",
    "google_place_id": "ChIJT9NDw-9Rlg4RWBNtvf6jjUI",
    "rating": 1,
    "address": "Mauritanie"
  },
  {
    "id": 29,
    "name": "ثانوية المناء رقم 3 | Al -mina High School n ° 3",
    "type": "School",
    "lat": 18.02328229999999,
    "lng": -15.9827441,
    "quartier": "22F8+8W, Nouakchott",
    "created_at": "2025-07-16T15:13:59.469076",
    "google_place_id": "ChIJF1jGAABPlg4R7CYjsV8t9Hc",
    "rating": null,
    "address": "22F8+8W, Nouakchott"
  },
  {
    "id": 30,
    "name": "مدارس العمرية | Écoles d'âge",
    "type": "School",
    "lat": 18.0469198,
    "lng": -15.9657746,
    "quartier": "22WM+WRQ, عرفات، نواكشوط،،",
    "created_at": "2025-07-16T15:13:59.469076",
    "google_place_id": "ChIJa15Bb99Tlg4RRZ4RWCwMtD0",
    "rating": 4.9,
    "address": "22WM+WRQ, عرفات، نواكشوط،،"
  },
  {
    "id": 31,
    "name": "مدرسة إبتدائية - عقبة ابن نافع | École primaire - Aqaba Ibn Nafi",
    "type": "School",
    "lat": 18.0464184,
    "lng": -15.9705546,
    "quartier": "22WH+HQ8, Nouakchott",
    "created_at": "2025-07-16T15:13:59.469076",
    "google_place_id": "ChIJW0Y8LPlNlg4RvOS-MJdmNaQ",
    "rating": null,
    "address": "22WH+HQ8, Nouakchott"
  },
  {
    "id": 32,
    "name": "مدرسة الوفاء الحرة 1 | Al -wafaa al -Hurra School 1",
    "type": "School",
    "lat": 18.0470035,
    "lng": -15.971745,
    "quartier": "22WH+R82, نواكشوط،",
    "created_at": "2025-07-16T15:13:59.469076",
    "google_place_id": "ChIJ2RK5zvRNlg4Ry7lXGViJ-CU",
    "rating": 5,
    "address": "22WH+R82, نواكشوط،"
  },
  {
    "id": 33,
    "name": "Castles science schools free compound | مجمع مدارس العلوم القلعة المجانية",
    "type": "School",
    "lat": 18.0470451,
    "lng": -15.958093,
    "quartier": "22WR+RQ7",
    "created_at": "2025-07-16T15:13:59.469076",
    "google_place_id": "ChIJC3SlLRtSlg4R7xiX3THFgS4",
    "rating": 3.5,
    "address": "22WR+RQ7"
  },
  {
    "id": 34,
    "name": "مدرسة باب السلام | École Bab Al Salam",
    "type": "School",
    "lat": 18.0127913,
    "lng": -15.9766312,
    "quartier": "227F+489, Unnamed Road, Nouakchott",
    "created_at": "2025-07-16T15:13:59.469076",
    "google_place_id": "ChIJA7azVpNPlg4RkQ3ItxtT1LE",
    "rating": null,
    "address": "227F+489, Unnamed Road, Nouakchott"
  },
  {
    "id": 35,
    "name": "مدرسة الفجر الحديثة عرفات | Al -fajr Modern School Arafat",
    "type": "School",
    "lat": 18.0449625,
    "lng": -15.95295309999999,
    "quartier": "عرفات، نواكشوط،، 22VW+XRM، نواكشوط،",
    "created_at": "2025-07-16T15:13:59.469076",
    "google_place_id": "ChIJhR2QnRZTlg4R6nS_TlUEaq8",
    "rating": 5,
    "address": "عرفات، نواكشوط،، 22VW+XRM، نواكشوط،"
  },
  {
    "id": 36,
    "name": "مدرسة الإصلاح | École al -islah",
    "type": "School",
    "lat": 18.047811,
    "lng": -15.9716139,
    "quartier": "22XH+49C, Unnamed Road, نواكشوط",
    "created_at": "2025-07-16T15:13:59.469076",
    "google_place_id": "ChIJZyF1v0RNlg4RSCP8Uia-UZ4",
    "rating": 2.5,
    "address": "22XH+49C, Unnamed Road, نواكشوط"
  },
  {
    "id": 37,
    "name": "Ecole RazgaII | مقاييس ecole",
    "type": "School",
    "lat": 18.0335715,
    "lng": -15.9856089,
    "quartier": "22M7+CPH, Nouakchott",
    "created_at": "2025-07-16T15:13:59.469076",
    "google_place_id": "ChIJ9w2Hi2hPlg4RXC0-h-BoRyA",
    "rating": null,
    "address": "22M7+CPH, Nouakchott"
  },
  {
    "id": 38,
    "name": "مدرسة ابو ايوب ( école Ebou Eyoub) | Abu Ayoub School (école ebou eyoub)",
    "type": "School",
    "lat": 18.0106384,
    "lng": -15.974009,
    "quartier": "225G+V7G, Nouakchott",
    "created_at": "2025-07-16T15:13:59.469076",
    "google_place_id": "ChIJuTVDEu1Plg4RZ3ZGBNwdF_Y",
    "rating": null,
    "address": "225G+V7G, Nouakchott"
  },
  {
    "id": 39,
    "name": "اهل المصطفى/اللواللود بي | Le peuple du Mustafa / Lawal B.",
    "type": "School",
    "lat": 18.04525659999999,
    "lng": -15.9519462,
    "quartier": "22WX+463, Nouakchott",
    "created_at": "2025-07-16T15:13:59.469076",
    "google_place_id": "ChIJCb-xfQBTlg4RmkvFDltLdOc",
    "rating": null,
    "address": "22WX+463, Nouakchott"
  },
  {
    "id": 40,
    "name": "مدرسة عرفات ه | École Arafat E",
    "type": "School",
    "lat": 18.0488762,
    "lng": -15.9589479,
    "quartier": "22XR+HC3, Unnamed Road, Nouakchott",
    "created_at": "2025-07-16T15:13:59.469076",
    "google_place_id": "ChIJXR356FVTlg4RV9fDV1kmVZA",
    "rating": null,
    "address": "22XR+HC3, Unnamed Road, Nouakchott"
  },
  {
    "id": 41,
    "name": "ثانوية عرفات 5 | Arafat High School 5",
    "type": "School",
    "lat": 18.0491389,
    "lng": -15.959009,
    "quartier": "22XR+M95, عرفات، نواكشوط،, Nouakchott",
    "created_at": "2025-07-16T15:13:59.469076",
    "google_place_id": "ChIJu-sR0oVTlg4ResZYFkT3Bgs",
    "rating": null,
    "address": "22XR+M95, عرفات، نواكشوط،, Nouakchott"
  },
  {
    "id": 42,
    "name": "École onizuka | مدرسة أونيزوكا",
    "type": "School",
    "lat": 18.0089634,
    "lng": -15.9719487,
    "quartier": "225H+H5, Nouakchott",
    "created_at": "2025-07-16T15:13:59.469076",
    "google_place_id": "ChIJtfm4VQBPlg4RCgEghx7B_ps",
    "rating": null,
    "address": "225H+H5, Nouakchott"
  },
  {
    "id": 43,
    "name": "مدرسة سعيد ابن المسيب | SAEED IBN AL -MUSAYYIB École",
    "type": "School",
    "lat": 18.0484183,
    "lng": -15.9558688,
    "quartier": "22XV+9M6, Unnamed Road, نواكشوط",
    "created_at": "2025-07-16T15:13:59.469076",
    "google_place_id": "ChIJFYUK0ZJTlg4R3CA9YAAF-1s",
    "rating": null,
    "address": "22XV+9M6, Unnamed Road, نواكشوط"
  },
  {
    "id": 44,
    "name": "الدار هل ولالو | La maison est Walo",
    "type": "School",
    "lat": 18.0410888,
    "lng": -15.9462381,
    "quartier": "23R3+CF, Nouakchott",
    "created_at": "2025-07-16T15:13:59.469076",
    "google_place_id": "ChIJUY_665VTlg4R8lZiGyi2bPw",
    "rating": null,
    "address": "23R3+CF, Nouakchott"
  },
  {
    "id": 45,
    "name": "مدرسة الرجاء الحرة - فرع عرفات الدايه 4 - | Al -rajaa école gratuite - Arafat al -Daiya Branch 4 -",
    "type": "School",
    "lat": 18.050189,
    "lng": -15.9700995,
    "quartier": "322H+3XC, عرفات، نواكشوط،, Nouakchott",
    "created_at": "2025-07-16T15:13:59.469076",
    "google_place_id": "ChIJs_agJIpNlg4Ri5C3vU18Vgg",
    "rating": 4.2,
    "address": "322H+3XC, عرفات، نواكشوط،, Nouakchott"
  },
  {
    "id": 46,
    "name": "محظرة البزولية لتدريس القرآن | L'interdiction du Zuloua pour enseigner le Coran",
    "type": "School",
    "lat": 18.0076919,
    "lng": -15.9582674,
    "quartier": "225R+3MH, Nouakchott",
    "created_at": "2025-07-16T15:13:59.469076",
    "google_place_id": "ChIJLTn9LwBRlg4RZXhIYjSGHCg",
    "rating": null,
    "address": "225R+3MH, Nouakchott"
  },
  {
    "id": 47,
    "name": "مدرسة الازدهار النموذجية | École modèle Al -Azhar",
    "type": "School",
    "lat": 18.0505175,
    "lng": -15.9582392,
    "quartier": "322R+6P2, Nouakchott",
    "created_at": "2025-07-16T15:13:59.469076",
    "google_place_id": "ChIJi9v3RQBTlg4RJ-wYB6HgCVc",
    "rating": null,
    "address": "322R+6P2, Nouakchott"
  },
  {
    "id": 48,
    "name": "Centre Akeluis | مركز Akeluis",
    "type": "School",
    "lat": 18.0505175,
    "lng": -15.9582392,
    "quartier": "322R+6P2, Nouakchott",
    "created_at": "2025-07-16T15:13:59.469076",
    "google_place_id": "ChIJExd1OoRTlg4RBMyz1Db-ZN4",
    "rating": null,
    "address": "322R+6P2, Nouakchott"
  },
  {
    "id": 49,
    "name": "ثانوية الوفاء عرفات | Al -wafaa lycée arafat",
    "type": "School",
    "lat": 18.0505175,
    "lng": -15.9582392,
    "quartier": "322R+6P2, Nouakchott",
    "created_at": "2025-07-16T15:13:59.469076",
    "google_place_id": "ChIJeWIwK0pTlg4RFahBkOH58Zs",
    "rating": null,
    "address": "322R+6P2, Nouakchott"
  },
  {
    "id": 50,
    "name": "مدرسة ilot k | École ILot K",
    "type": "School",
    "lat": 18.0505226,
    "lng": -15.958209,
    "quartier": "322R+6P3, تفرغ زينة، نواكشوط،, Nouakchott",
    "created_at": "2025-07-16T15:13:59.469076",
    "google_place_id": "ChIJbwLM64BTlg4RbvyrTmudhrA",
    "rating": null,
    "address": "322R+6P3, تفرغ زينة، نواكشوط،, Nouakchott"
  },
  {
    "id": 51,
    "name": "Lycée d'excellence | مدرسة التميز الثانوية",
    "type": "School",
    "lat": 18.0505226,
    "lng": -15.958209,
    "quartier": "322R+6P3, Nouakchott",
    "created_at": "2025-07-16T15:13:59.469076",
    "google_place_id": "ChIJ1djyqOZTlg4RwsXO_7J46B0",
    "rating": 5,
    "address": "322R+6P3, Nouakchott"
  },
  {
    "id": 52,
    "name": "École Abba Ould Khatour | مدرسة أبا خاتور",
    "type": "School",
    "lat": 18.0505402,
    "lng": -15.9582077,
    "quartier": "322R+6P7",
    "created_at": "2025-07-16T15:13:59.469076",
    "google_place_id": "ChIJqT2HJKVTlg4Rx0M_te7bokc",
    "rating": 1,
    "address": "322R+6P7"
  },
  {
    "id": 53,
    "name": "مدرسة حمزه | École Hamza",
    "type": "School",
    "lat": 18.0505402,
    "lng": -15.9582077,
    "quartier": "322R+6P7",
    "created_at": "2025-07-16T15:13:59.469076",
    "google_place_id": "ChIJBQUQ371Tlg4RjqL7VGHL5cE",
    "rating": 5,
    "address": "322R+6P7"
  },
  {
    "id": 54,
    "name": "الشارقه | Requin",
    "type": "School",
    "lat": 18.0515482,
    "lng": -15.9621425,
    "quartier": "322Q+J49, Nouakchott",
    "created_at": "2025-07-16T15:13:59.469076",
    "google_place_id": "ChIJ4eVkag9Tlg4RSSpu6CI2xIU",
    "rating": 5,
    "address": "322Q+J49, Nouakchott"
  },
  {
    "id": 55,
    "name": "École halima sadiya | جد المدرسة سما سايا.",
    "type": "School",
    "lat": 18.0087322,
    "lng": -15.9758711,
    "quartier": "225F+FMR",
    "created_at": "2025-07-16T15:13:59.469076",
    "google_place_id": "ChIJD-RsDihPlg4RnKEJ6uJ25Lo",
    "rating": null,
    "address": "225F+FMR"
  },
  {
    "id": 56,
    "name": "ÉCOLE HAMADE | مدرسة حمد",
    "type": "School",
    "lat": 18.0087322,
    "lng": -15.9758711,
    "quartier": "225F+FMR",
    "created_at": "2025-07-16T15:13:59.469076",
    "google_place_id": "ChIJidvO0wxPlg4Rr3-6dWIcZWY",
    "rating": null,
    "address": "225F+FMR"
  },
  {
    "id": 57,
    "name": "King Right | الملك الحق",
    "type": "School",
    "lat": 18.0087322,
    "lng": -15.9758711,
    "quartier": "225F+FMR, Unnamed Road, Nouakchott",
    "created_at": "2025-07-16T15:13:59.469076",
    "google_place_id": "ChIJcXMxLn5Plg4RglOJD0SgyFs",
    "rating": 3,
    "address": "225F+FMR, Unnamed Road, Nouakchott"
  },
  {
    "id": 58,
    "name": "مدرسة معين الثقافة الخاص | École de culture Moeen",
    "type": "School",
    "lat": 18.0204999,
    "lng": -15.9426259,
    "quartier": "23C4+5WX, Nouakchott",
    "created_at": "2025-07-16T15:13:59.469076",
    "google_place_id": "ChIJYZkehF5Rlg4RKW2-00qQNKY",
    "rating": null,
    "address": "23C4+5WX, Nouakchott"
  },
  {
    "id": 59,
    "name": "Lycée Riyadh 3 | رياده 3 المدرسة الثانوية",
    "type": "School",
    "lat": 18.0226696,
    "lng": -15.9412567,
    "quartier": "23F5+3F9, الترحيل،",
    "created_at": "2025-07-16T15:13:59.469076",
    "google_place_id": "ChIJX17c4fdRlg4RsWBwzlWH7Kk",
    "rating": null,
    "address": "23F5+3F9, الترحيل،"
  },
  {
    "id": 60,
    "name": "دار مريم التهامي | Maryam Al -Tohamy House",
    "type": "School",
    "lat": 18.0490829,
    "lng": -15.95170679999999,
    "quartier": "22XX+V8C, Nouakchott",
    "created_at": "2025-07-16T15:13:59.469076",
    "google_place_id": "ChIJKT3YTABTlg4RX8VQVzQnqwM",
    "rating": null,
    "address": "22XX+V8C, Nouakchott"
  },
  {
    "id": 61,
    "name": "مدارس مشارق العلم الحرة | Écoles de drapeau libre",
    "type": "School",
    "lat": 18.0363868,
    "lng": -15.9191908,
    "quartier": "23PJ+G9, Beila",
    "created_at": "2025-07-16T15:13:59.469076",
    "google_place_id": "ChIJP9jt-RVRlg4RTRS4V7HMs4Y",
    "rating": null,
    "address": "23PJ+G9, Beila"
  },
  {
    "id": 62,
    "name": "École elmenhrj el qadim | مدرسة Elmenhrj القديم",
    "type": "School",
    "lat": 18.0238837,
    "lng": -15.92601839999999,
    "quartier": "23FF+HH5, Nouakchott",
    "created_at": "2025-07-16T15:13:59.469076",
    "google_place_id": "ChIJZRosKABRlg4RRrdu_Fh-Les",
    "rating": 5,
    "address": "23FF+HH5, Nouakchott"
  },
  {
    "id": 63,
    "name": "إعدادية الرياض 8 | Riyad préparatoire 8",
    "type": "School",
    "lat": 18.0252326,
    "lng": -15.92780309999999,
    "quartier": "الترحيل، نواكشوط،",
    "created_at": "2025-07-16T15:13:59.469076",
    "google_place_id": "ChIJp3vYsOZRlg4RKgrv8MBsCG8",
    "rating": null,
    "address": "الترحيل، نواكشوط،"
  },
  {
    "id": 64,
    "name": "اباتن/ اعليَّ | L'éternité / élevée",
    "type": "School",
    "lat": 18.0268406,
    "lng": -15.9282175,
    "quartier": "الترحيل، نواكشوط،",
    "created_at": "2025-07-16T15:13:59.469076",
    "google_place_id": "ChIJ-1X6DyxRlg4RSmZ0FvK6nRk",
    "rating": 5,
    "address": "الترحيل، نواكشوط،"
  },
  {
    "id": 65,
    "name": "مدرسة لكبيد | École de Kabid",
    "type": "School",
    "lat": 18.0393937,
    "lng": -15.9258685,
    "quartier": "مدرسة لكبيد, Beila",
    "created_at": "2025-07-16T15:13:59.469076",
    "google_place_id": "ChIJp_WI6QVRlg4Ri1oCJLhioFg",
    "rating": null,
    "address": "مدرسة لكبيد, Beila"
  },
  {
    "id": 66,
    "name": "اهل احمد بي | Ahmad bi B.",
    "type": "School",
    "lat": 18.0356931,
    "lng": -15.9288288,
    "quartier": "23PC+7FF, Nouakchott",
    "created_at": "2025-07-16T15:13:59.469076",
    "google_place_id": "ChIJlwCPeI5Rlg4RvD8I0UZAt_w",
    "rating": null,
    "address": "23PC+7FF, Nouakchott"
  },
  {
    "id": 67,
    "name": "اهل اعل سالم | Plus le Salem est élevé",
    "type": "School",
    "lat": 18.0357118,
    "lng": -15.9288641,
    "quartier": "23PC+7FJ, Nouakchott",
    "created_at": "2025-07-16T15:13:59.469076",
    "google_place_id": "ChIJUeECQQBRlg4R45Vh8cCHVSs",
    "rating": null,
    "address": "23PC+7FJ, Nouakchott"
  },
  {
    "id": 68,
    "name": "مدرسة وجاها | École wajah",
    "type": "School",
    "lat": 18.023256,
    "lng": -15.9313114,
    "quartier": "ملّح، نواكشوط،،",
    "created_at": "2025-07-16T15:13:59.469076",
    "google_place_id": "ChIJxTz0WbRRlg4RnpcYu6w1DiY",
    "rating": 5,
    "address": "ملّح، نواكشوط،،"
  },
  {
    "id": 69,
    "name": "مجمع مدارس سبويه الخاصة | Complexe d'écoles spéciales",
    "type": "School",
    "lat": 18.0258447,
    "lng": -15.9321808,
    "quartier": "الترحيل، نواكشوط،",
    "created_at": "2025-07-16T15:13:59.469076",
    "google_place_id": "ChIJhQ1P3wJRlg4RuS810atJzUc",
    "rating": 3,
    "address": "الترحيل، نواكشوط،"
  },
  {
    "id": 70,
    "name": "مدرسة الراشدين الحرة | École gratuite al-rashideen",
    "type": "School",
    "lat": 18.0428116,
    "lng": -15.9249693,
    "quartier": "23RG+V75, Beila",
    "created_at": "2025-07-16T15:13:59.469076",
    "google_place_id": "ChIJcXSwJgBTlg4RtoLwjinlNNM",
    "rating": null,
    "address": "23RG+V75, Beila"
  },
  {
    "id": 71,
    "name": "مدرسة التعليم الفني والتكوين المهني في الرياض | École technique de formation et de formation professionnelle à Riyad",
    "type": "School",
    "lat": 18.0209479,
    "lng": -15.9320623,
    "quartier": "ملّح، نواكشوط،،",
    "created_at": "2025-07-16T15:13:59.469076",
    "google_place_id": "ChIJjZeIGU5Rlg4RTOqYSkTm55w",
    "rating": 4,
    "address": "ملّح، نواكشوط،،"
  },
  {
    "id": 72,
    "name": "مشروع بباه اللب | Projet Babah Pulp",
    "type": "School",
    "lat": 18.0151145,
    "lng": -15.9297835,
    "quartier": "238C+23W",
    "created_at": "2025-07-16T15:13:59.469076",
    "google_place_id": "ChIJoedTyAdRlg4R6s0SeSKMxS4",
    "rating": 5,
    "address": "238C+23W"
  },
  {
    "id": 73,
    "name": "مدرسة محمد ولد الحيمر | École Mohamed Ould Al -Himer",
    "type": "School",
    "lat": 18.0159096,
    "lng": -15.9305936,
    "quartier": "2389+9Q7, Nouakchott",
    "created_at": "2025-07-16T15:13:59.469076",
    "google_place_id": "ChIJP_-UQgBRlg4RR18gGMVASKQ",
    "rating": 5,
    "address": "2389+9Q7, Nouakchott"
  },
  {
    "id": 74,
    "name": "مدرسة اغلمبيت | École d'agmalbet",
    "type": "School",
    "lat": 18.046733,
    "lng": -15.929336,
    "quartier": "23WC+M7V",
    "created_at": "2025-07-16T15:13:59.469076",
    "google_place_id": "ChIJ3wepM-xTlg4RaITSlS3KmiE",
    "rating": null,
    "address": "23WC+M7V"
  },
  {
    "id": 75,
    "name": "مجمع مدارس أقلمبيت الحرة | Complexe d'écoles gratuites aqlbit",
    "type": "School",
    "lat": 18.0467497,
    "lng": -15.9293155,
    "quartier": "23WC+M7V",
    "created_at": "2025-07-16T15:13:59.469076",
    "google_place_id": "ChIJv_KosRBTlg4R4mA41OxlMp0",
    "rating": null,
    "address": "23WC+M7V"
  },
  {
    "id": 76,
    "name": "النبلاء الحرة | Noble libre",
    "type": "School",
    "lat": 18.048789,
    "lng": -15.9271999,
    "quartier": "23XF+G47, Nouakchott",
    "created_at": "2025-07-16T15:13:59.469076",
    "google_place_id": "ChIJV5W_p_9Tlg4RcsKUy-tK-Y0",
    "rating": null,
    "address": "23XF+G47, Nouakchott"
  },
  {
    "id": 77,
    "name": "مسجد الرضوان | Mosquée al -radwan",
    "type": "School",
    "lat": 18.0510612,
    "lng": -15.9070758,
    "quartier": "332V+C5, Beila",
    "created_at": "2025-07-16T15:13:59.469076",
    "google_place_id": "ChIJ1bsB5qJTlg4RY_Et-Lp86w0",
    "rating": null,
    "address": "332V+C5, Beila"
  },
  {
    "id": 78,
    "name": "البحث | Recherche",
    "type": "School",
    "lat": 18.037493,
    "lng": -15.8912905,
    "quartier": "24P5+XFW, نواكشوط الشمالية،, Beila",
    "created_at": "2025-07-16T15:13:59.469076",
    "google_place_id": "ChIJdy4QA8pRlg4RueizKyBs2rc",
    "rating": 4.2,
    "address": "24P5+XFW, نواكشوط الشمالية،, Beila"
  },
  {
    "id": 79,
    "name": "مدرسة يحي | École de Yahya",
    "type": "School",
    "lat": 18.0502402,
    "lng": -15.8988011,
    "quartier": "3422+3FW, Nouakchott",
    "created_at": "2025-07-16T15:13:59.469076",
    "google_place_id": "ChIJZ7LjsoVTlg4RZ8dy44xacOk",
    "rating": null,
    "address": "3422+3FW, Nouakchott"
  },
  {
    "id": 80,
    "name": "مدرسة المصطفى بدر الظين École Mostapha Bedr Eddine | Al -Mustafa Badr al -dhin School",
    "type": "School",
    "lat": 18.05029339999999,
    "lng": -15.8986626,
    "quartier": "3422+4G, Beila",
    "created_at": "2025-07-16T15:13:59.469076",
    "google_place_id": "ChIJ769pGrxTlg4RrGPkHNDAgAQ",
    "rating": 1.5,
    "address": "3422+4G, Beila"
  },
  {
    "id": 81,
    "name": "COLLEGE TOUJOUNINE 7 إعدادية توجنين 7 | Collège Tougnounine 7 préparatoire 7",
    "type": "School",
    "lat": 18.0548571,
    "lng": -15.9221019,
    "quartier": "333H+W5R, Unnamed Road, Beila",
    "created_at": "2025-07-16T15:13:59.469076",
    "google_place_id": "ChIJm8LiflxTlg4RwKOQ73dzGxE",
    "rating": null,
    "address": "333H+W5R, Unnamed Road, Beila"
  },
  {
    "id": 82,
    "name": "Ecole Ashbal | مدرسة أشبال",
    "type": "School",
    "lat": 18.095927,
    "lng": -15.999951,
    "quartier": "BP 05, Nouakchott",
    "created_at": "2025-07-16T15:13:59.469076",
    "google_place_id": "ChIJGXx5eBFNlg4R42I_KasYacs",
    "rating": 5,
    "address": "BP 05, Nouakchott"
  },
  {
    "id": 83,
    "name": "اعدادية الرياض٤ | Riyad préparatoire 4",
    "type": "School",
    "lat": 18.0798783,
    "lng": -16.0128983,
    "quartier": "3XJP+4Q, Nouakchott",
    "created_at": "2025-07-16T15:13:59.469076",
    "google_place_id": "ChIJ99KEkYJNlg4RNIh8uGdyK-g",
    "rating": null,
    "address": "3XJP+4Q, Nouakchott"
  },
  {
    "id": 84,
    "name": "محظرة أبوبكر حيدر mahdara aidara | Abu Bakr Haider est interdit",
    "type": "School",
    "lat": 18.0796,
    "lng": -16.0066392,
    "quartier": "3XHV+R8Q, Nouakchott",
    "created_at": "2025-07-16T15:13:59.469076",
    "google_place_id": "ChIJXyxTcyNNlg4ReU6l0PZ6ERc",
    "rating": 5,
    "address": "3XHV+R8Q, Nouakchott"
  },
  {
    "id": 85,
    "name": "École privée cheikh moussa | المدرسة الخاصة تشيخ موسا",
    "type": "School",
    "lat": 18.0805394,
    "lng": -16.0063807,
    "quartier": "3XJV+6C9, Unnamed Road, Nouakchott",
    "created_at": "2025-07-16T15:13:59.469076",
    "google_place_id": "ChIJp7itZfxNlg4RaGgaDEWMf3A",
    "rating": 5,
    "address": "3XJV+6C9, Unnamed Road, Nouakchott"
  },
  {
    "id": 86,
    "name": "Ecole Privée Mademba Diop | المدرسة الخاصة مادمبا ديوب",
    "type": "School",
    "lat": 18.0755063,
    "lng": -16.0021525,
    "quartier": "3XGX+645, Nouakchott",
    "created_at": "2025-07-16T15:13:59.469076",
    "google_place_id": "ChIJGw6KNT1Nlg4RDA2lPq5L8ck",
    "rating": 3,
    "address": "3XGX+645, Nouakchott"
  },
  {
    "id": 87,
    "name": "ECOLE THIERNO SOULEYMANE BALL | مدرسة ثيرنو سويمان الكرة",
    "type": "School",
    "lat": 18.0812615,
    "lng": -16.0012637,
    "quartier": "3XJX+GF5",
    "created_at": "2025-07-16T15:13:59.469076",
    "google_place_id": "ChIJhU3E2cdNlg4RjMA6qACjZO0",
    "rating": null,
    "address": "3XJX+GF5"
  },
  {
    "id": 88,
    "name": "Ecole Ibn Hamidoun à Sebkha | مدرسة ابن حميدون في سيبخا",
    "type": "School",
    "lat": 18.0664563,
    "lng": -16.0076338,
    "quartier": "3X8R+HWQ, Nouakchott",
    "created_at": "2025-07-16T15:13:59.469076",
    "google_place_id": "ChIJBTLjBTxNlg4RZWhP9w7-t3Y",
    "rating": 4.2,
    "address": "3X8R+HWQ, Nouakchott"
  },
  {
    "id": 89,
    "name": "Tidjikja | Tidjikja",
    "type": "School",
    "lat": 18.0760021,
    "lng": -16.0001108,
    "quartier": "3XGX+CX2, Nouakchott",
    "created_at": "2025-07-16T15:13:59.469076",
    "google_place_id": "ChIJLTRmYwBNlg4R-MvwkMZ8wY0",
    "rating": null,
    "address": "3XGX+CX2, Nouakchott"
  },
  {
    "id": 90,
    "name": "إبتدائية البصرة 2 | Bassora Elementary 2",
    "type": "School",
    "lat": 18.0651989,
    "lng": -16.0101033,
    "quartier": "3X8Q+3XC, السبخة، نواكشوط،, Nouakchott",
    "created_at": "2025-07-16T15:13:59.469076",
    "google_place_id": "ChIJHdU19VZNlg4RvbgeKfjsi4A",
    "rating": 2,
    "address": "3X8Q+3XC, السبخة، نواكشوط،, Nouakchott"
  },
  {
    "id": 91,
    "name": "Ecole Abderahman Elnaghli | مدرسة عبد الرحمن",
    "type": "School",
    "lat": 18.091294,
    "lng": -16.006633,
    "quartier": "3XRV+G8, Nouakchott",
    "created_at": "2025-07-16T15:13:59.469076",
    "google_place_id": "ChIJiRxFUQBNlg4R8CbpFaeprSY",
    "rating": null,
    "address": "3XRV+G8, Nouakchott"
  },
  {
    "id": 92,
    "name": "École Cheikh Moussa | مدرسة تشيخ موسا",
    "type": "School",
    "lat": 18.0890839,
    "lng": -16.0035895,
    "quartier": "3XQW+JHM",
    "created_at": "2025-07-16T15:13:59.469076",
    "google_place_id": "ChIJccDgMitNlg4R4DO72ysORnk",
    "rating": 5,
    "address": "3XQW+JHM"
  },
  {
    "id": 93,
    "name": "Ecole Vaida | مدرسة Vaida",
    "type": "School",
    "lat": 18.0720968,
    "lng": -16.0010492,
    "quartier": "3XCX+RHP, Nouakchott",
    "created_at": "2025-07-16T15:13:59.469076",
    "google_place_id": "ChIJVYQ8UkZNlg4RiwZZhiNRPTs",
    "rating": null,
    "address": "3XCX+RHP, Nouakchott"
  },
  {
    "id": 94,
    "name": "Lycée GPS Mounir | مدرسة GPS Mounir الثانوية",
    "type": "School",
    "lat": 18.0738202,
    "lng": -15.9997291,
    "quartier": "32F2+G4C, Nouakchott",
    "created_at": "2025-07-16T15:13:59.469076",
    "google_place_id": "ChIJvylY3V9Nlg4Rtecmg9bmT8Y",
    "rating": 5,
    "address": "32F2+G4C, Nouakchott"
  },
  {
    "id": 95,
    "name": "Lycée Sebkha I | Sebkha أنا المدرسة الثانوية",
    "type": "School",
    "lat": 18.0744625,
    "lng": -15.9989844,
    "quartier": "32F2+QCJ, Nouakchott",
    "created_at": "2025-07-16T15:13:59.469076",
    "google_place_id": "ChIJtTCSvf9Nlg4RTp3kaVjQqIc",
    "rating": 2.8,
    "address": "32F2+QCJ, Nouakchott"
  },
  {
    "id": 96,
    "name": "Baobab | بوباب",
    "type": "School",
    "lat": 18.0711925,
    "lng": -16.0004408,
    "quartier": "3XCX+FRF, Unnamed Road, Nouakchott",
    "created_at": "2025-07-16T15:13:59.469076",
    "google_place_id": "ChIJe2blImZNlg4RUB_Jy5m981w",
    "rating": 5,
    "address": "3XCX+FRF, Unnamed Road, Nouakchott"
  },
  {
    "id": 97,
    "name": "Mahdara Iman pour les filles محظرة الإيمان للبنات | Mahmoud Iman pour les remplissages est l'interdiction de la foi pour les filles",
    "type": "School",
    "lat": 18.0788174,
    "lng": -15.9982552,
    "quartier": "32H2+GP, Nouakchott",
    "created_at": "2025-07-16T15:13:59.469076",
    "google_place_id": "ChIJsQY9j1pNlg4R7-cRWsO4hJ4",
    "rating": 4.5,
    "address": "32H2+GP, Nouakchott"
  },
  {
    "id": 98,
    "name": "ecole excellence-El hadj Amadou Mokhtar Sakho | ecolleeleence-el's hadj adadou mokhtar sakho",
    "type": "School",
    "lat": 18.0923819,
    "lng": -16.0054803,
    "quartier": "3XRV+XR2, Nouakchott",
    "created_at": "2025-07-16T15:13:59.469076",
    "google_place_id": "ChIJfbtRndFNlg4RtbLMniOyebk",
    "rating": 3,
    "address": "3XRV+XR2, Nouakchott"
  },
  {
    "id": 99,
    "name": "MD SAKHO | MD الخاص بك",
    "type": "School",
    "lat": 18.06573029999999,
    "lng": -16.0045858,
    "quartier": "3X8W+75V",
    "created_at": "2025-07-16T15:13:59.469076",
    "google_place_id": "ChIJPeAePKRNlg4RUSCxGVozdlU",
    "rating": 5,
    "address": "3X8W+75V"
  },
  {
    "id": 100,
    "name": "MSG Balla | MSG Balla",
    "type": "School",
    "lat": 18.0947589,
    "lng": -16.0087062,
    "quartier": "3XVR+WG4, Nouakchott",
    "created_at": "2025-07-16T15:13:59.469076",
    "google_place_id": "ChIJP33uewBNlg4RK8F45wLdh3Q",
    "rating": null,
    "address": "3XVR+WG4, Nouakchott"
  },
  {
    "id": 101,
    "name": "École 11 | école 11",
    "type": "School",
    "lat": 18.0774357,
    "lng": -15.9969153,
    "quartier": "Sebkha, B6, Nouakchott",
    "created_at": "2025-07-16T15:13:59.469076",
    "google_place_id": "ChIJs-cN5OdNlg4RKePcMxvFWTQ",
    "rating": null,
    "address": "Sebkha, B6, Nouakchott"
  },
  {
    "id": 102,
    "name": "Ecoles Privées El Khiyar مدارس الخيار الحرة | Ecoles price el khiyar écoles d'options gratuites",
    "type": "School",
    "lat": 18.0828785,
    "lng": -15.9748075,
    "quartier": "32MG+534, Nouakchott",
    "created_at": "2025-07-16T15:13:59.469076",
    "google_place_id": "ChIJl1NI74FNlg4RVMAZ4DIHcdM",
    "rating": null,
    "address": "32MG+534, Nouakchott"
  },
  {
    "id": 103,
    "name": "MiFiTT Institute | معهد ميفيت",
    "type": "School",
    "lat": 18.0917611,
    "lng": -15.9781673,
    "quartier": "Ilot P. en face de la BMS, Nouakchott",
    "created_at": "2025-07-16T15:13:59.469076",
    "google_place_id": "ChIJJeLvqHtNlg4R6Zceh7pL58g",
    "rating": 3.3,
    "address": "Ilot P. en face de la BMS, Nouakchott"
  },
  {
    "id": 104,
    "name": "مدرسة المعالي الحرة | Al -ma’ali École gratuite",
    "type": "School",
    "lat": 18.0601457,
    "lng": -15.9510139,
    "quartier": "326X+3H5, Unnamed Road, Nouakchott",
    "created_at": "2025-07-16T15:13:59.469076",
    "google_place_id": "ChIJDziajBRSlg4RHQiY1ILKxxA",
    "rating": null,
    "address": "326X+3H5, Unnamed Road, Nouakchott"
  },
  {
    "id": 105,
    "name": "البصر | Vision",
    "type": "School",
    "lat": 18.0792757,
    "lng": -15.9648938,
    "quartier": "32HP+P29, Carrefour Madrid, Nouakchott",
    "created_at": "2025-07-16T15:13:59.469076",
    "google_place_id": "ChIJUZIrGQBTlg4R5Kt6YtcCxA8",
    "rating": 5,
    "address": "32HP+P29, Carrefour Madrid, Nouakchott"
  },
  {
    "id": 106,
    "name": "Uganda school | مدرسة أوغندا",
    "type": "School",
    "lat": 18.0775624,
    "lng": -15.965413,
    "quartier": "32HM+2RG",
    "created_at": "2025-07-16T15:13:59.469076",
    "google_place_id": "ChIJbd0JAPBTlg4R4UYuyWl6XTs",
    "rating": null,
    "address": "32HM+2RG"
  },
  {
    "id": 107,
    "name": "المدرسة الوطنية لالأركان École nationale d'Etat major | École nationale de personnel",
    "type": "School",
    "lat": 18.0799299,
    "lng": -15.9667839,
    "quartier": "Military Headquarters Complex, Nouakchott",
    "created_at": "2025-07-16T15:13:59.469076",
    "google_place_id": "ChIJ0XTu-TJTlg4RQfM461rndeA",
    "rating": 1,
    "address": "Military Headquarters Complex, Nouakchott"
  },
  {
    "id": 108,
    "name": "مدرسة اضواء المعرفة | Lights of Knowledge School",
    "type": "School",
    "lat": 18.0772169,
    "lng": -15.9632682,
    "quartier": "32GP+VMQ, Nouakchott",
    "created_at": "2025-07-16T15:13:59.469076",
    "google_place_id": "ChIJ83AqlXtSlg4RzzUTA-ORbWI",
    "rating": 4.3,
    "address": "32GP+VMQ, Nouakchott"
  },
  {
    "id": 109,
    "name": "Centre les majors | مركز ليجور",
    "type": "School",
    "lat": 18.0766387,
    "lng": -15.9643042,
    "quartier": "",
    "created_at": "2025-07-16T15:13:59.469076",
    "google_place_id": "ChIJm1aEnhVTlg4RPg6Om2hOd6w",
    "rating": 5,
    "address": ""
  },
  {
    "id": 110,
    "name": "مدرسة الرجاء الحرة | École gratuite Raja",
    "type": "School",
    "lat": 18.0756956,
    "lng": -15.9655759,
    "quartier": "32GM+7P8, Nouakchott",
    "created_at": "2025-07-16T15:13:59.469076",
    "google_place_id": "ChIJQQ78fwBTlg4R33rtSK70guU",
    "rating": null,
    "address": "32GM+7P8, Nouakchott"
  },
  {
    "id": 111,
    "name": "مدارس الجزيرة الحرة | Écoles gratuites d'Al Jazeera",
    "type": "School",
    "lat": 18.0781556,
    "lng": -15.9605471,
    "quartier": "32HQ+7Q8, Carrefour Madrid, Nouakchott",
    "created_at": "2025-07-16T15:13:59.469076",
    "google_place_id": "ChIJDx_ngG5Tlg4REaIkrNNaT2Y",
    "rating": null,
    "address": "32HQ+7Q8, Carrefour Madrid, Nouakchott"
  },
  {
    "id": 112,
    "name": "مجمع مداس الجزيرة العلم | Al -Jazeera Al -Alam Al -Jazeera Complexe",
    "type": "School",
    "lat": 18.0780092,
    "lng": -15.96041339999999,
    "quartier": "32HQ+6R4",
    "created_at": "2025-07-16T15:13:59.469076",
    "google_place_id": "ChIJ1V1VEalTlg4R0_nMJrCEmD8",
    "rating": 5,
    "address": "32HQ+6R4"
  },
  {
    "id": 113,
    "name": "ملعب ماجيك | Stade magique",
    "type": "School",
    "lat": 18.0742197,
    "lng": -15.9654072,
    "quartier": "32FM+MRP, Nouakchott",
    "created_at": "2025-07-16T15:13:59.469076",
    "google_place_id": "ChIJHwffFQBTlg4RvGv7jDR6SEY",
    "rating": 5,
    "address": "32FM+MRP, Nouakchott"
  },
  {
    "id": 114,
    "name": "محظرة السيوطي | Al -Suyuti interdit",
    "type": "School",
    "lat": 18.0750011,
    "lng": -15.9619569,
    "quartier": "32GQ+263, Nouakchott",
    "created_at": "2025-07-16T15:13:59.469076",
    "google_place_id": "ChIJJ8X3FQBTlg4R3j8TiAWk-8s",
    "rating": 5,
    "address": "32GQ+263, Nouakchott"
  },
  {
    "id": 115,
    "name": "مدرسة كمالي | École kamali",
    "type": "School",
    "lat": 18.0741156,
    "lng": -15.9662116,
    "quartier": "32FM+JGV, كرفور، نواكشوط،, Nouakchott",
    "created_at": "2025-07-16T15:13:59.469076",
    "google_place_id": "ChIJ5dnmTZ9Tlg4RRkL4KAo5Dsk",
    "rating": null,
    "address": "32FM+JGV, كرفور، نواكشوط،, Nouakchott"
  },
  {
    "id": 116,
    "name": "مدرسة المحمدية (كرفور مدريد) | École Muhammadiyah (Cervor Madrid)",
    "type": "School",
    "lat": 18.0748539,
    "lng": -15.9615687,
    "quartier": "32FQ+W9W, Nouakchott",
    "created_at": "2025-07-16T15:13:59.469076",
    "google_place_id": "ChIJB3V0fwBTlg4RzYDVINhi01c",
    "rating": null,
    "address": "32FQ+W9W, Nouakchott"
  },
  {
    "id": 117,
    "name": "ثانوية الإمتياز | Excellence High School",
    "type": "School",
    "lat": 18.0801645,
    "lng": -15.9704653,
    "quartier": "32JH+3R7, Rue de I Espoir, Nouakchott",
    "created_at": "2025-07-16T15:13:59.469076",
    "google_place_id": "ChIJx5JRYSxNlg4RMdtTxqWrMxs",
    "rating": null,
    "address": "32JH+3R7, Rue de I Espoir, Nouakchott"
  },
  {
    "id": 118,
    "name": "بيك١٣ | بيك١٣",
    "type": "School",
    "lat": 18.07337,
    "lng": -15.965402,
    "quartier": "32FM+8RX, نواكشوط",
    "created_at": "2025-07-16T15:13:59.469076",
    "google_place_id": "ChIJJYl0NPFTlg4RMzXk60cjI74",
    "rating": 2.5,
    "address": "32FM+8RX, نواكشوط"
  },
  {
    "id": 119,
    "name": "مدرسة المراد | École al -Murad",
    "type": "School",
    "lat": 18.0760408,
    "lng": -15.9598698,
    "quartier": "32GR+C36, Nouakchott",
    "created_at": "2025-07-16T15:13:59.469076",
    "google_place_id": "ChIJw6nvXQBTlg4RXIWhjCzuMpQ",
    "rating": 5,
    "address": "32GR+C36, Nouakchott"
  },
  {
    "id": 120,
    "name": "مركز افهم معنا العلمي _كرفور | Je comprends le centre scientifique avec nous - Karfour",
    "type": "School",
    "lat": 18.0752832,
    "lng": -15.9603785,
    "quartier": "Unnamed Road, Nouakchott",
    "created_at": "2025-07-16T15:13:59.469076",
    "google_place_id": "ChIJDUL47DJTlg4RFjANaie-qxc",
    "rating": 5,
    "address": "Unnamed Road, Nouakchott"
  },
  {
    "id": 121,
    "name": "Collège Des Jeunes Garçons | كلية الأولاد الصغار",
    "type": "School",
    "lat": 18.0751219,
    "lng": -15.9696277,
    "quartier": "32GJ+24X, Capitaine Niang Ibra, Nouakchott",
    "created_at": "2025-07-16T15:13:59.469076",
    "google_place_id": "ChIJrwz8dWpTlg4RelyJUuVCUBQ",
    "rating": null,
    "address": "32GJ+24X, Capitaine Niang Ibra, Nouakchott"
  },
  {
    "id": 122,
    "name": "Lycee de formation technique professionnel et indistriel | المدرسة الثانوية التقنية المهنية والمزدوجة",
    "type": "School",
    "lat": 18.083766,
    "lng": -15.9687698,
    "quartier": "32MJ+GF5",
    "created_at": "2025-07-16T15:13:59.469076",
    "google_place_id": "ChIJm4JxzQVTlg4RbXIK0onpFhM",
    "rating": 3.5,
    "address": "32MJ+GF5"
  },
  {
    "id": 123,
    "name": "مدارس نيل العلم -كرفور | Écoles du Nil Al -Alam -Karfour",
    "type": "School",
    "lat": 18.072888,
    "lng": -15.96518120000001,
    "quartier": "32FM+5W4, Nouakchott",
    "created_at": "2025-07-16T15:13:59.469076",
    "google_place_id": "ChIJhRWD2PtTlg4RtzTrzJROa1g",
    "rating": null,
    "address": "32FM+5W4, Nouakchott"
  },
  {
    "id": 124,
    "name": "Al-Eslah Al-Raed Schools Complex | مجمع المدارس الإسلامية",
    "type": "School",
    "lat": 18.0746842,
    "lng": -15.9601529,
    "quartier": "AL-ESLAH AL-RAED Schools complex, Nouakchott",
    "created_at": "2025-07-16T15:13:59.469076",
    "google_place_id": "ChIJ7wyQcjpTlg4RPkorA4KRXWg",
    "rating": null,
    "address": "AL-ESLAH AL-RAED Schools complex, Nouakchott"
  },
  {
    "id": 125,
    "name": "Lycée d'Excellence 1 | مدرسة التميز الثانوية 1",
    "type": "School",
    "lat": 18.0799905,
    "lng": -15.971626,
    "quartier": "32HH+X8X",
    "created_at": "2025-07-16T15:13:59.469076",
    "google_place_id": "ChIJl-5aTgpNlg4RPBtqLVr9tUU",
    "rating": 4.8,
    "address": "32HH+X8X"
  },
  {
    "id": 126,
    "name": "SIGMA CENTRE | مركز سيجما",
    "type": "School",
    "lat": 18.0737716,
    "lng": -15.9609344,
    "quartier": "32FQ+GJ4, Unnamed Road, Nouakchott",
    "created_at": "2025-07-16T15:13:59.469076",
    "google_place_id": "ChIJg1bYYL1Tlg4RrxuF7DJWmSg",
    "rating": null,
    "address": "32FQ+GJ4, Unnamed Road, Nouakchott"
  },
  {
    "id": 127,
    "name": "مركز إي بي سي | Centre EBC",
    "type": "School",
    "lat": 18.0760472,
    "lng": -15.9587781,
    "quartier": "",
    "created_at": "2025-07-16T15:13:59.469076",
    "google_place_id": "ChIJ_cHQ1npSlg4Ruf6gcROikE0",
    "rating": 4.8,
    "address": ""
  },
  {
    "id": 128,
    "name": "soukh meka | سوخ ميكا",
    "type": "School",
    "lat": 18.0721892,
    "lng": -15.9658974,
    "quartier": "soukh meka, Nouakchott",
    "created_at": "2025-07-16T15:13:59.469076",
    "google_place_id": "ChIJu6lHOmRTlg4RbC2cAhHGDjI",
    "rating": 5,
    "address": "soukh meka, Nouakchott"
  },
  {
    "id": 129,
    "name": "المجمع المدرسي الخاص الإصلاح الرائد | Complexe scolaire de réforme des pionniers",
    "type": "School",
    "lat": 18.073027,
    "lng": -15.9612927,
    "quartier": "32FQ+6F8",
    "created_at": "2025-07-16T15:13:59.469076",
    "google_place_id": "ChIJqfSGXsxTlg4Rqai7_NV_laY",
    "rating": null,
    "address": "32FQ+6F8"
  },
  {
    "id": 130,
    "name": "الثانوية العربية | Lycée arabe",
    "type": "School",
    "lat": 18.0801707,
    "lng": -15.9724703,
    "quartier": "32JH+326, Rue Mohamed Lemine Sakho, Nouakchott",
    "created_at": "2025-07-16T15:13:59.469076",
    "google_place_id": "ChIJU-aqwDxNlg4RMoyZfgPG2Hk",
    "rating": null,
    "address": "32JH+326, Rue Mohamed Lemine Sakho, Nouakchott"
  },
  {
    "id": 131,
    "name": "Écoles Privées Errachad EURÊKA Socogim | المدارس الخاصة Errachad Eurêka Socogim",
    "type": "School",
    "lat": 18.0761047,
    "lng": -15.9721526,
    "quartier": "32GH+F52",
    "created_at": "2025-07-16T15:13:59.469076",
    "google_place_id": "ChIJd5Qg9T5Nlg4RKvfIB-z0Sq4",
    "rating": 3.8,
    "address": "32GH+F52"
  },
  {
    "id": 132,
    "name": "مدرسة التطبيق | École de candidature",
    "type": "School",
    "lat": 18.0845164,
    "lng": -15.9706559,
    "quartier": "32MH+RP5, Nouakchott",
    "created_at": "2025-07-16T15:13:59.469076",
    "google_place_id": "ChIJ-6_R6EdNlg4RppEfS6J2JHw",
    "rating": null,
    "address": "32MH+RP5, Nouakchott"
  },
  {
    "id": 133,
    "name": "مدرسة الأفضل الحرة | La meilleure école gratuite",
    "type": "School",
    "lat": 18.0722591,
    "lng": -15.960591,
    "quartier": "32CQ+WQ2, Nouakchott",
    "created_at": "2025-07-16T15:13:59.469076",
    "google_place_id": "ChIJCSThQABTlg4RXOuWcnnvIa0",
    "rating": null,
    "address": "32CQ+WQ2, Nouakchott"
  },
  {
    "id": 134,
    "name": "Luycée Pilote | طيار لويسيه",
    "type": "School",
    "lat": 18.0851527,
    "lng": -15.9704089,
    "quartier": "32PH+3R8, نواكشوط",
    "created_at": "2025-07-16T15:13:59.469076",
    "google_place_id": "ChIJp-9CqVVNlg4RwLuPgpHhYVI",
    "rating": null,
    "address": "32PH+3R8, نواكشوط"
  },
  {
    "id": 135,
    "name": "ثانوية البنين 2 | Garçons secondaire 2",
    "type": "School",
    "lat": 18.080396,
    "lng": -15.9733106,
    "quartier": "32JG+5M4, Rue Mohamed Lemine Sakho, Nouakchott",
    "created_at": "2025-07-16T15:13:59.469076",
    "google_place_id": "ChIJr0MGiKpNlg4RGC2JTV1EjmY",
    "rating": null,
    "address": "32JG+5M4, Rue Mohamed Lemine Sakho, Nouakchott"
  },
  {
    "id": 136,
    "name": "مجمع مدارس أمينة | Complexe des écoles Amina",
    "type": "School",
    "lat": 18.0761195,
    "lng": -15.9571185,
    "quartier": "32GV+C5R",
    "created_at": "2025-07-16T15:13:59.469076",
    "google_place_id": "ChIJH6lWIWVSlg4Rnw73UXqyCmA",
    "rating": 4.6,
    "address": "32GV+C5R"
  },
  {
    "id": 137,
    "name": "مركز الصفوة الأدبي | Centre alwater littéraire",
    "type": "School",
    "lat": 18.0756567,
    "lng": -15.9572765,
    "quartier": "32GV+738, Nouakchott",
    "created_at": "2025-07-16T15:13:59.469076",
    "google_place_id": "ChIJD7DvegBTlg4RIHjkMk7Pjy0",
    "rating": null,
    "address": "32GV+738, Nouakchott"
  },
  {
    "id": 138,
    "name": "Lycée Arafat 2 | عرفات 2 المدرسة الثانوية",
    "type": "School",
    "lat": 18.0726251,
    "lng": -15.9597893,
    "quartier": "lycée arafat 2, Nouakchott",
    "created_at": "2025-07-16T15:13:59.469076",
    "google_place_id": "ChIJvfMme3BSlg4Rbpkzi9Nhz28",
    "rating": null,
    "address": "lycée arafat 2, Nouakchott"
  },
  {
    "id": 139,
    "name": "LYCEE DE JEUNES FILLES ثانوية البنات | Lycee de Jeues remplit l'école secondaire des filles",
    "type": "School",
    "lat": 18.0854194,
    "lng": -15.9702294,
    "quartier": "32PH+5W6, Nouakchott",
    "created_at": "2025-07-16T15:13:59.469076",
    "google_place_id": "ChIJ6dJhZ0NNlg4R5Y_Hu8TzORE",
    "rating": null,
    "address": "32PH+5W6, Nouakchott"
  },
  {
    "id": 140,
    "name": "مجمع مدارس ول رازگه الحرة | Le complexe scolaire gratuit de Razjah",
    "type": "School",
    "lat": 18.0744618,
    "lng": -15.9578743,
    "quartier": "32FR+QVJ, نواكشوط،",
    "created_at": "2025-07-16T15:13:59.469076",
    "google_place_id": "ChIJSVT1kb1Tlg4R1Kp8OvCBQFI",
    "rating": 5,
    "address": "32FR+QVJ, نواكشوط،"
  },
  {
    "id": 141,
    "name": "محظرة الرضوان للعلوم الشرعية | Al -radwan interdit pour les sciences juridiques",
    "type": "School",
    "lat": 18.0753457,
    "lng": -15.9573177,
    "quartier": "32GV+443, Nouakchott",
    "created_at": "2025-07-16T15:13:59.469076",
    "google_place_id": "ChIJE59pUQBTlg4R9fdxzr-MwRM",
    "rating": null,
    "address": "32GV+443, Nouakchott"
  },
  {
    "id": 142,
    "name": "مدرسة الفاروق | École al -farouq",
    "type": "School",
    "lat": 18.0710515,
    "lng": -15.9625333,
    "quartier": "32CP+CXG, Nouakchott",
    "created_at": "2025-07-16T15:13:59.469076",
    "google_place_id": "ChIJ_QOXg8VTlg4R2AayXOwLWLI",
    "rating": 4.4,
    "address": "32CP+CXG, Nouakchott"
  },
  {
    "id": 143,
    "name": "مدرسة الشيخ سيدي محمد | Sheikh Sidi Muhammad School",
    "type": "School",
    "lat": 18.0735411,
    "lng": -15.9582339,
    "quartier": "32FR+CP6, Nouakchott",
    "created_at": "2025-07-16T15:13:59.469076",
    "google_place_id": "ChIJQRNxNQBTlg4RV2YfywahDM8",
    "rating": null,
    "address": "32FR+CP6, Nouakchott"
  },
  {
    "id": 144,
    "name": "Ecole technique et professionnelle Ryadh | مدرسة رياد الفنية والمهنية",
    "type": "School",
    "lat": 18.0735411,
    "lng": -15.9582339,
    "quartier": "32FR+CP6, Nouakchott",
    "created_at": "2025-07-16T15:13:59.469076",
    "google_place_id": "ChIJkXSuGwBTlg4RyUni04gNa-I",
    "rating": null,
    "address": "32FR+CP6, Nouakchott"
  },
  {
    "id": 145,
    "name": "قرية إديشلي | Village d'Edishli",
    "type": "School",
    "lat": 18.0735411,
    "lng": -15.9582339,
    "quartier": "32FR+CP6, قرية إديشلي نواكشوط, في",
    "created_at": "2025-07-16T15:13:59.469076",
    "google_place_id": "ChIJ94eQfABTlg4REGjjQWBcjuc",
    "rating": null,
    "address": "32FR+CP6, قرية إديشلي نواكشوط, في"
  },
  {
    "id": 146,
    "name": "Mahadra | لتجف",
    "type": "School",
    "lat": 18.0735411,
    "lng": -15.9582339,
    "quartier": "32FR+CP6, Nouakchott",
    "created_at": "2025-07-16T15:13:59.469076",
    "google_place_id": "ChIJQ4z7cgBTlg4R7rbUWMcmCvk",
    "rating": null,
    "address": "32FR+CP6, Nouakchott"
  },
  {
    "id": 147,
    "name": "مدرسة الامير سيداحمد | École du prince Sidah Ahmed",
    "type": "School",
    "lat": 18.0735411,
    "lng": -15.9582339,
    "quartier": "32FR+CP6, Nouakchott",
    "created_at": "2025-07-16T15:13:59.469076",
    "google_place_id": "ChIJ3ximqlxTlg4R_cahF452QpU",
    "rating": null,
    "address": "32FR+CP6, Nouakchott"
  },
  {
    "id": 148,
    "name": "Annexe1 | الملحق 1",
    "type": "School",
    "lat": 18.0735411,
    "lng": -15.9582339,
    "quartier": "32FR+CP6, Nouakchott",
    "created_at": "2025-07-16T15:13:59.469076",
    "google_place_id": "ChIJgXll-29Tlg4Rj65XpKHnwHE",
    "rating": null,
    "address": "32FR+CP6, Nouakchott"
  },
  {
    "id": 149,
    "name": "Centre arafat6 | مركز عرفات 6",
    "type": "School",
    "lat": 18.0735411,
    "lng": -15.9582339,
    "quartier": "32FR+CP6, Nouakchott",
    "created_at": "2025-07-16T15:13:59.469076",
    "google_place_id": "ChIJBYqj4RxTlg4RaCl1pYARuF4",
    "rating": null,
    "address": "32FR+CP6, Nouakchott"
  },
  {
    "id": 150,
    "name": "محظرة العون النموذجية | Aide du modèle interdit",
    "type": "School",
    "lat": 18.0735411,
    "lng": -15.9582339,
    "quartier": "32FR+CP6, ولاية",
    "created_at": "2025-07-16T15:13:59.469076",
    "google_place_id": "ChIJIZQyWTBTlg4RTFgqw0FuuhY",
    "rating": 5,
    "address": "32FR+CP6, ولاية"
  },
  {
    "id": 151,
    "name": "المينا | Émail",
    "type": "School",
    "lat": 18.0735411,
    "lng": -15.9582339,
    "quartier": "32FR+CP6, نواكشوط،",
    "created_at": "2025-07-16T15:13:59.469076",
    "google_place_id": "ChIJV7-_dpRTlg4RhGjlVdQlTF0",
    "rating": null,
    "address": "32FR+CP6, نواكشوط،"
  },
  {
    "id": 152,
    "name": "زوزو | Zoso",
    "type": "School",
    "lat": 18.0735411,
    "lng": -15.9582339,
    "quartier": "32FR+CP6, نواكشوط،",
    "created_at": "2025-07-16T15:13:59.469076",
    "google_place_id": "ChIJsyQ8zAJTlg4RX01UUtxFw48",
    "rating": null,
    "address": "32FR+CP6, نواكشوط،"
  },
  {
    "id": 153,
    "name": "تن اسويلم | Ton du silom",
    "type": "School",
    "lat": 18.0735411,
    "lng": -15.9582339,
    "quartier": "32FR+CP6, Nouakchott",
    "created_at": "2025-07-16T15:13:59.469076",
    "google_place_id": "ChIJMcyZqXRTlg4RidMXQEEmVwo",
    "rating": null,
    "address": "32FR+CP6, Nouakchott"
  },
  {
    "id": 154,
    "name": "Kabra fall | كابرا سقوط",
    "type": "School",
    "lat": 18.0735411,
    "lng": -15.9582339,
    "quartier": "Mahfoudhfrancois41@gmail.com, Nouakchott",
    "created_at": "2025-07-16T15:13:59.469076",
    "google_place_id": "ChIJGaMAbbBTlg4R5ZdwMPYrq2A",
    "rating": null,
    "address": "Mahfoudhfrancois41@gmail.com, Nouakchott"
  },
  {
    "id": 155,
    "name": "رواد المعرفه | Pionniers de la connaissance",
    "type": "School",
    "lat": 18.0735411,
    "lng": -15.9582339,
    "quartier": "32FR+CP6, Nouakchott",
    "created_at": "2025-07-16T15:13:59.469076",
    "google_place_id": "ChIJUagLcY9Tlg4RKJSttCgmmY8",
    "rating": null,
    "address": "32FR+CP6, Nouakchott"
  },
  {
    "id": 156,
    "name": "Ecole des Indépendants(Complexe Educatif Kawthar) | كلية الذات (مجمع كوثر التعليمي)",
    "type": "School",
    "lat": 18.0735411,
    "lng": -15.9582339,
    "quartier": "2125, Nouakchott",
    "created_at": "2025-07-16T15:13:59.469076",
    "google_place_id": "ChIJA1gmGO1Tlg4Ri5i75MAYV6Y",
    "rating": null,
    "address": "2125, Nouakchott"
  },
  {
    "id": 157,
    "name": "مركز محمد محمود ولد حمادي | Mohamed Mahmoud Ould Hammadi Center",
    "type": "School",
    "lat": 18.0735411,
    "lng": -15.9582339,
    "quartier": "32FR+CP6, نواكشوط،",
    "created_at": "2025-07-16T15:13:59.469076",
    "google_place_id": "ChIJWf8APdxTlg4RhyQpzOhGEL8",
    "rating": null,
    "address": "32FR+CP6, نواكشوط،"
  },
  {
    "id": 158,
    "name": "Centre PrépaBAC | مركز التحضير",
    "type": "School",
    "lat": 18.0735411,
    "lng": -15.9582339,
    "quartier": "route souq mecca, Nouakchott",
    "created_at": "2025-07-16T15:13:59.469076",
    "google_place_id": "ChIJYfXSuolTlg4RMIwpqzVBMrA",
    "rating": null,
    "address": "route souq mecca, Nouakchott"
  },
  {
    "id": 159,
    "name": "Riyad Golden English Center | مركز رياد الذهبي للغة الإنجليزية",
    "type": "School",
    "lat": 18.0735411,
    "lng": -15.9582339,
    "quartier": "Etage bleu, Riyad. PK 8, Nouakchott",
    "created_at": "2025-07-16T15:13:59.469076",
    "google_place_id": "ChIJ2bMJFspTlg4RcTgXZi9BHMA",
    "rating": null,
    "address": "Etage bleu, Riyad. PK 8, Nouakchott"
  },
  {
    "id": 160,
    "name": "Mauritanie | موريتانيا",
    "type": "School",
    "lat": 18.0735411,
    "lng": -15.9582339,
    "quartier": "32FR+CP6, Unnamed Road, Nouakchott - نواكشوط، noukchott, Nouakchott",
    "created_at": "2025-07-16T15:13:59.469076",
    "google_place_id": "ChIJh46H-qFTlg4RHCowjDWrR60",
    "rating": 3.3,
    "address": "32FR+CP6, Unnamed Road, Nouakchott - نواكشوط، noukchott, Nouakchott"
  },
  {
    "id": 161,
    "name": "مجمع مدارس المهرة الحرة | Complexe d'écoles qualifiées gratuites",
    "type": "School",
    "lat": 18.0795286,
    "lng": -15.9148024,
    "quartier": "33HP+R38, Unnamed Road, نواكشوط",
    "created_at": "2025-07-16T15:13:59.469076",
    "google_place_id": "ChIJPS3gf71Tlg4RcSAa88C8wMo",
    "rating": null,
    "address": "33HP+R38, Unnamed Road, نواكشوط"
  },
  {
    "id": 162,
    "name": "مجمع مدارس الأمل و التقدم الحرة | Le complexe des écoles d'espoir et de progrès libres",
    "type": "School",
    "lat": 18.0758269,
    "lng": -15.9116957,
    "quartier": "33FP+XXR, Toujounine, Hay Idari",
    "created_at": "2025-07-16T15:13:59.469076",
    "google_place_id": "ChIJPVl4lflTlg4RE2cka9JEK6k",
    "rating": 4,
    "address": "33FP+XXR, Toujounine, Hay Idari"
  },
  {
    "id": 163,
    "name": "محظرة اهل الشيخ موسي كمرا | Les habitants de Sheikh Moussa sont interdits",
    "type": "School",
    "lat": 18.074161,
    "lng": -15.9161269,
    "quartier": "33FM+MHC, نواكشوط،،",
    "created_at": "2025-07-16T15:13:59.469076",
    "google_place_id": "ChIJx8vU61JTlg4RIJ0DGRFX0mo",
    "rating": 5,
    "address": "33FM+MHC, نواكشوط،،"
  },
  {
    "id": 164,
    "name": "مدرسة النائب | École MP",
    "type": "School",
    "lat": 18.0738818,
    "lng": -15.9132041,
    "quartier": "33FP+HP3, توجنين، نواكشوط،, Nouakchott",
    "created_at": "2025-07-16T15:13:59.469076",
    "google_place_id": "ChIJxxCTvEVTlg4R_SVeGqqr8Fs",
    "rating": null,
    "address": "33FP+HP3, توجنين، نواكشوط،, Nouakchott"
  },
  {
    "id": 165,
    "name": "Lycée Toujounine 2 | Toujounine 2 المدرسة الثانوية",
    "type": "School",
    "lat": 18.0731527,
    "lng": -15.907692,
    "quartier": "33FR+7W7",
    "created_at": "2025-07-16T15:13:59.469076",
    "google_place_id": "ChIJwRc3z7tTlg4RJyBu3zTPIro",
    "rating": null,
    "address": "33FR+7W7"
  },
  {
    "id": 166,
    "name": "مدرسة القدس École Al Quds | École de Jérusalem al Quds",
    "type": "School",
    "lat": 18.0729258,
    "lng": -15.9222354,
    "quartier": "33FH+54C",
    "created_at": "2025-07-16T15:13:59.469076",
    "google_place_id": "ChIJFcioOrNTlg4Rj3Fob8RXs_w",
    "rating": 4.2,
    "address": "33FH+54C"
  },
  {
    "id": 167,
    "name": "COMPLEXE TAGHADOUM - HEDEF مجمع مدارس تقدم الهدف | Complexe Taghadoum - Complexe d'objectifs des écoles Hedef",
    "type": "School",
    "lat": 18.0713077,
    "lng": -15.9090591,
    "quartier": "33CR+G9G, Unnamed Road, Nouakchott",
    "created_at": "2025-07-16T15:13:59.469076",
    "google_place_id": "ChIJU3VDq1xTlg4RmyuRaedNDp0",
    "rating": null,
    "address": "33CR+G9G, Unnamed Road, Nouakchott"
  },
  {
    "id": 168,
    "name": "Muslim Hands School of Excellence Mauritania | مدرسة التميز في اليدين المسلم موريتانيا",
    "type": "School",
    "lat": 18.0875835,
    "lng": -15.9099157,
    "quartier": "33QR+22P, Nouakchott",
    "created_at": "2025-07-16T15:13:59.469076",
    "google_place_id": "ChIJt5P2aQBTlg4R2ClcE70bg5I",
    "rating": 5,
    "address": "33QR+22P, Nouakchott"
  },
  {
    "id": 169,
    "name": "Complexe Des Ecoles Privées El Mewahib El Jedida مجمع مدارس المواهب الجديدة | Complexe des ecoles privation el mewahib el jeddida complexe des écoles de talents",
    "type": "School",
    "lat": 18.0688947,
    "lng": -15.9167459,
    "quartier": "339M+H82, Unnamed Road, نواكشوط",
    "created_at": "2025-07-16T15:13:59.469076",
    "google_place_id": "ChIJfWgVpi5Tlg4RXw6h6IVmiRM",
    "rating": null,
    "address": "339M+H82, Unnamed Road, نواكشوط"
  },
  {
    "id": 170,
    "name": "Ecoles Priveé Tarek Bin Ziyad مجمع مدارس طارق بن زياد | ECles Priveé Tarek Bin Ziyad Tariq Bin Zad School Assembly",
    "type": "School",
    "lat": 18.0702921,
    "lng": -15.9209637,
    "quartier": "33CH+4J7, طريق الامل، نواكشوط،, Nouakchott",
    "created_at": "2025-07-16T15:13:59.469076",
    "google_place_id": "ChIJe0aGOGNTlg4Rq2XpwlyKpkU",
    "rating": null,
    "address": "33CH+4J7, طريق الامل، نواكشوط،, Nouakchott"
  },
  {
    "id": 171,
    "name": "Lycee toujounine 4 | Lycee Toujnine 4",
    "type": "School",
    "lat": 18.0722243,
    "lng": -15.9053689,
    "quartier": "33CV+VVJ, Nouakchott",
    "created_at": "2025-07-16T15:13:59.469076",
    "google_place_id": "ChIJP2KQFgBTlg4RDVPPSdAYQWI",
    "rating": null,
    "address": "33CV+VVJ, Nouakchott"
  },
  {
    "id": 172,
    "name": "مدريد | Madrid",
    "type": "School",
    "lat": 18.0722243,
    "lng": -15.9053689,
    "quartier": "33CV+VVJ, Nouakchott",
    "created_at": "2025-07-16T15:13:59.469076",
    "google_place_id": "ChIJlTKmBSVTlg4RGZ4oGbrS7Kk",
    "rating": 4,
    "address": "33CV+VVJ, Nouakchott"
  },
  {
    "id": 173,
    "name": "توجينين | Tanine",
    "type": "School",
    "lat": 18.0722243,
    "lng": -15.9053689,
    "quartier": "33CV+VVJ, نواكشوط",
    "created_at": "2025-07-16T15:13:59.469076",
    "google_place_id": "ChIJjXRTCTFTlg4R37OCOj4FVTU",
    "rating": 3,
    "address": "33CV+VVJ, نواكشوط"
  },
  {
    "id": 174,
    "name": "TD | TD",
    "type": "School",
    "lat": 18.0733804,
    "lng": -15.9259856,
    "quartier": "33FF+9J2, Nouakchott",
    "created_at": "2025-07-16T15:13:59.469076",
    "google_place_id": "ChIJHbF1HQBTlg4Rr82RXrMv7A8",
    "rating": null,
    "address": "33FF+9J2, Nouakchott"
  },
  {
    "id": 175,
    "name": "توجنين | Le DOIN",
    "type": "School",
    "lat": 18.0733804,
    "lng": -15.9259856,
    "quartier": "33FF+9J2, Nouakchott",
    "created_at": "2025-07-16T15:13:59.469076",
    "google_place_id": "ChIJz7acFwBTlg4RqyvT2nLb-TI",
    "rating": 3,
    "address": "33FF+9J2, Nouakchott"
  },
  {
    "id": 176,
    "name": "مركز أحمدبزيد الدياه | Ahmed Bousa Center",
    "type": "School",
    "lat": 18.0741121,
    "lng": -15.9273542,
    "quartier": "33FF+J3R, Nouakchott",
    "created_at": "2025-07-16T15:13:59.469076",
    "google_place_id": "ChIJf_8tMwBTlg4RMDtCunA8uj0",
    "rating": null,
    "address": "33FF+J3R, Nouakchott"
  },
  {
    "id": 177,
    "name": "Bouhdida | Bouhdida",
    "type": "School",
    "lat": 18.0740733,
    "lng": -15.9273602,
    "quartier": "33FF+J3C, Nouakchott",
    "created_at": "2025-07-16T15:13:59.469076",
    "google_place_id": "ChIJsTMHegBTlg4RglXI8D7AqyU",
    "rating": null,
    "address": "33FF+J3C, Nouakchott"
  },
  {
    "id": 178,
    "name": "حاسي | Sensible",
    "type": "School",
    "lat": 18.0734428,
    "lng": -15.9274147,
    "quartier": "33FF+C2M, Nouakchott",
    "created_at": "2025-07-16T15:13:59.469076",
    "google_place_id": "ChIJzSIR_7RTlg4RHjq9jNTrjlY",
    "rating": null,
    "address": "33FF+C2M, Nouakchott"
  },
  {
    "id": 179,
    "name": "مدارس المنطلق الحرة | Écoles de départ gratuites",
    "type": "School",
    "lat": 18.0732953,
    "lng": -15.9275013,
    "quartier": "33FC+8X9, Nouakchott",
    "created_at": "2025-07-16T15:13:59.469076",
    "google_place_id": "ChIJS7R7ZXxTlg4RSpkDmTWSfqQ",
    "rating": 3,
    "address": "33FC+8X9, Nouakchott"
  },
  {
    "id": 180,
    "name": "مدارس ولد أتلاميد الحرة ECOLES PRIVEES Ould Etlamid | Ecoles Privees ouls Etlamid",
    "type": "School",
    "lat": 18.0687367,
    "lng": -15.9062029,
    "quartier": "339V+FGV, طريق الامل، نواكشوط،، نواكشوط،, Nouakchott",
    "created_at": "2025-07-16T15:13:59.469076",
    "google_place_id": "ChIJv-aGprVTlg4Rr1gw4YsxXsU",
    "rating": null,
    "address": "339V+FGV, طريق الامل، نواكشوط،، نواكشوط،, Nouakchott"
  },
  {
    "id": 181,
    "name": "مجمع مدارس مدينة العلوم الحرة | Complexe d'écoles de la ville scientifique gratuite",
    "type": "School",
    "lat": 18.0702883,
    "lng": -15.9254635,
    "quartier": "ehl Chach, Nouakchott",
    "created_at": "2025-07-16T15:13:59.469076",
    "google_place_id": "ChIJk3rng15Tlg4R3wIgAYAd5cE",
    "rating": 3.9,
    "address": "ehl Chach, Nouakchott"
  },
  {
    "id": 182,
    "name": "مجمع مدارس الأمجاد الخاصة | Complexe d'écoles al -amjad",
    "type": "School",
    "lat": 18.0713474,
    "lng": -15.92650009999999,
    "quartier": "33CF+HCG, Nouakchott",
    "created_at": "2025-07-16T15:13:59.469076",
    "google_place_id": "ChIJNR4LZwBTlg4R9A6Rdq176Kw",
    "rating": null,
    "address": "33CF+HCG, Nouakchott"
  },
  {
    "id": 183,
    "name": "مدارس الفوز الأكيد الحرة | Écoles gagnantes certifiées",
    "type": "School",
    "lat": 18.065844,
    "lng": -15.91881160000001,
    "quartier": "338J+8FP, Nouakchott",
    "created_at": "2025-07-16T15:13:59.469076",
    "google_place_id": "ChIJbUiMBgBTlg4ROcqP0NOIduo",
    "rating": 4,
    "address": "338J+8FP, Nouakchott"
  },
  {
    "id": 184,
    "name": "اهل بزبادي | Personnes de Babadi",
    "type": "School",
    "lat": 18.0660111,
    "lng": -15.9199966,
    "quartier": "338J+C22, Nouakchott",
    "created_at": "2025-07-16T15:13:59.469076",
    "google_place_id": "ChIJh-U4S_pTlg4RKod4RIPuTHE",
    "rating": null,
    "address": "338J+C22, Nouakchott"
  },
  {
    "id": 185,
    "name": "مدرسة علي | École Ali",
    "type": "School",
    "lat": 18.0758629,
    "lng": -15.9005695,
    "quartier": "33GX+8QV, نواكشوط،",
    "created_at": "2025-07-16T15:13:59.469076",
    "google_place_id": "ChIJb7vMBkhTlg4R5RRANjFAWCI",
    "rating": null,
    "address": "33GX+8QV, نواكشوط،"
  },
  {
    "id": 186,
    "name": "CHEIKH KAZWANI SCHOOL | Chivehle هو CEST الوحيد",
    "type": "School",
    "lat": 18.0898136,
    "lng": -15.9246194,
    "quartier": "33QG+W5C, Beila",
    "created_at": "2025-07-16T15:13:59.469076",
    "google_place_id": "ChIJM5W7yd9Tlg4Rx0XFi9GCRCM",
    "rating": null,
    "address": "33QG+W5C, Beila"
  },
  {
    "id": 187,
    "name": "مدرسة اليابان بوحديدة | École du Japon à Hadida",
    "type": "School",
    "lat": 18.0656803,
    "lng": -15.9203658,
    "quartier": "338H+7VC, Unnamed Road،، نواكشوط،, Nouakchott",
    "created_at": "2025-07-16T15:13:59.469076",
    "google_place_id": "ChIJA58SbFNTlg4R30fmqqvsukE",
    "rating": 5,
    "address": "338H+7VC, Unnamed Road،، نواكشوط،, Nouakchott"
  },
  {
    "id": 188,
    "name": "الإدارة الجهوية للتعليم dren الشمالية | Administration régionale du Northern DRN",
    "type": "School",
    "lat": 18.0693404,
    "lng": -15.9260787,
    "quartier": "339F+PHM, Nouakchott",
    "created_at": "2025-07-16T15:13:59.469076",
    "google_place_id": "ChIJ01_ErahTlg4RmAC_-QGn330",
    "rating": null,
    "address": "339F+PHM, Nouakchott"
  },
  {
    "id": 189,
    "name": "مدرسة مولود | École de Mouloud",
    "type": "School",
    "lat": 18.0655983,
    "lng": -15.9207042,
    "quartier": "338H+6PM, Nouakchott",
    "created_at": "2025-07-16T15:13:59.469076",
    "google_place_id": "ChIJl_F7aABTlg4Rg5A2sVwz-lg",
    "rating": null,
    "address": "338H+6PM, Nouakchott"
  },
  {
    "id": 190,
    "name": "مدرسة ولد اعمر طالب | École ould omar talib",
    "type": "School",
    "lat": 18.0653658,
    "lng": -15.9202518,
    "quartier": "338H+4VX, Unnamed Road،, Nouakchott",
    "created_at": "2025-07-16T15:13:59.469076",
    "google_place_id": "ChIJic_APrNTlg4RrN-Uq_VJf6M",
    "rating": 4.5,
    "address": "338H+4VX, Unnamed Road،, Nouakchott"
  },
  {
    "id": 191,
    "name": "ثانوية توجنين 1 عند اصويلة بوحيدة | Tajennin secondaire 1 à Aseela Bouhida",
    "type": "School",
    "lat": 18.0691599,
    "lng": -15.9263891,
    "quartier": "339F+MC9, بوحديدة، نواكشوط،, Nouakchott",
    "created_at": "2025-07-16T15:13:59.469076",
    "google_place_id": "ChIJY-qmSNJTlg4RGpbZrRZhz4Y",
    "rating": null,
    "address": "339F+MC9, بوحديدة، نواكشوط،, Nouakchott"
  },
  {
    "id": 192,
    "name": "Secondary Tuginyn | Tuginyn الثانوية",
    "type": "School",
    "lat": 18.0687047,
    "lng": -15.9261436,
    "quartier": "339F+FGQ",
    "created_at": "2025-07-16T15:13:59.469076",
    "google_place_id": "ChIJoXRHoUtSlg4Rl0tRD1InmpY",
    "rating": 3.6,
    "address": "339F+FGQ"
  },
  {
    "id": 193,
    "name": "مدرسة السعدية | École Saadia",
    "type": "School",
    "lat": 18.0732665,
    "lng": -15.9005364,
    "quartier": "33FX+8Q4, Nouakchott",
    "created_at": "2025-07-16T15:13:59.469076",
    "google_place_id": "ChIJFUKKQoBTlg4RzzHcU4pMGU8",
    "rating": null,
    "address": "33FX+8Q4, Nouakchott"
  },
  {
    "id": 194,
    "name": "Mbeyit 10 | Mbeyit 10",
    "type": "School",
    "lat": 18.0696375,
    "lng": -15.9025781,
    "quartier": "339W+VX3",
    "created_at": "2025-07-16T15:13:59.469076",
    "google_place_id": "ChIJ5Wdj5cRTlg4RAio28qGanQ0",
    "rating": null,
    "address": "339W+VX3"
  },
  {
    "id": 195,
    "name": "Lycée elmina 4 | مدرسة إلمينا 4 الثانوية",
    "type": "School",
    "lat": 18.0637626,
    "lng": -15.9139977,
    "quartier": "337P+RGQ, Nouakchott",
    "created_at": "2025-07-16T15:13:59.469076",
    "google_place_id": "ChIJ8QvekixTlg4RDdFJOzTCbNI",
    "rating": null,
    "address": "337P+RGQ, Nouakchott"
  },
  {
    "id": 196,
    "name": "بلدية امبلل | Municipalité d'Ambel",
    "type": "School",
    "lat": 18.0656479,
    "lng": -15.9067218,
    "quartier": "338V+9G7, Nouakchott",
    "created_at": "2025-07-16T15:13:59.469076",
    "google_place_id": "ChIJFU7x3lRTlg4RubQWQo8lxDk",
    "rating": null,
    "address": "338V+9G7, Nouakchott"
  },
  {
    "id": 197,
    "name": "AhMedou salem | أحمدو سالم",
    "type": "School",
    "lat": 18.0815379,
    "lng": -15.9313506,
    "quartier": "33J9+JF",
    "created_at": "2025-07-16T15:13:59.469076",
    "google_place_id": "ChIJI3BHHi9Tlg4R4BUk7NrKzrQ",
    "rating": null,
    "address": "33J9+JF"
  },
  {
    "id": 198,
    "name": "عزيز ولد العالم 72 | Aziz est né le monde 72",
    "type": "School",
    "lat": 18.0669297,
    "lng": -15.9290907,
    "quartier": "338C+Q9F, Unnamed Road, Nouakchott",
    "created_at": "2025-07-16T15:13:59.469076",
    "google_place_id": "ChIJnRpOrfZTlg4R3RyjE2VfWgQ",
    "rating": 4.5,
    "address": "338C+Q9F, Unnamed Road, Nouakchott"
  },
  {
    "id": 199,
    "name": "إعدادية توجنين 2 | Tognnin préparatoire 2",
    "type": "School",
    "lat": 18.0773926,
    "lng": -15.9340879,
    "quartier": "33G8+X93, بوحديدة، نواكشوط،, Nouakchott",
    "created_at": "2025-07-16T15:13:59.469076",
    "google_place_id": "ChIJhzb9qOZTlg4R_oXy9UbUYLs",
    "rating": null,
    "address": "33G8+X93, بوحديدة، نواكشوط،, Nouakchott"
  },
  {
    "id": 200,
    "name": "مدرسة مصعب بن عمير | École Musab bin Omair",
    "type": "School",
    "lat": 18.0664268,
    "lng": -15.9005503,
    "quartier": "338X+HQG, Nouakchott",
    "created_at": "2025-07-16T15:13:59.469076",
    "google_place_id": "ChIJU_6MOO1Tlg4RMPdnVDBP_8A",
    "rating": null,
    "address": "338X+HQG, Nouakchott"
  },
  {
    "id": 201,
    "name": "اسرة يحي الركادي | Famille Yahya al -rakadi",
    "type": "School",
    "lat": 18.0608097,
    "lng": -15.9194911,
    "quartier": "336J+86C, Nouakchott",
    "created_at": "2025-07-16T15:13:59.469076",
    "google_place_id": "ChIJa6L1YR5Tlg4RCigVJVwXlzM",
    "rating": null,
    "address": "336J+86C, Nouakchott"
  },
  {
    "id": 202,
    "name": "مركز الحماية والدمج للأطفال | Centre de protection et d'intégration des enfants",
    "type": "School",
    "lat": 18.0953534,
    "lng": -15.9268026,
    "quartier": "33WF+9C5, Nouakchott",
    "created_at": "2025-07-16T15:13:59.469076",
    "google_place_id": "ChIJr3fvCABTlg4RTZ53ww5o9yg",
    "rating": null,
    "address": "33WF+9C5, Nouakchott"
  },
  {
    "id": 203,
    "name": "مركز أهل البخاري القرآني - CenterEhelBoukhariQuranique | Centerhelboukhari -action",
    "type": "School",
    "lat": 18.0637209,
    "lng": -15.9014721,
    "quartier": "نواكشوط،",
    "created_at": "2025-07-16T15:13:59.469076",
    "google_place_id": "ChIJwQeJQwlTlg4R8hOUTqGlMX0",
    "rating": 5,
    "address": "نواكشوط،"
  },
  {
    "id": 204,
    "name": "مدرسة اعلي ولد مياره | École Alaya ould Mayra",
    "type": "School",
    "lat": 18.0979875,
    "lng": -15.9217969,
    "quartier": "33XH+57W, Nouakchott",
    "created_at": "2025-07-16T15:13:59.469076",
    "google_place_id": "ChIJvdGUYMNTlg4RtSzgJeChIho",
    "rating": null,
    "address": "33XH+57W, Nouakchott"
  },
  {
    "id": 205,
    "name": "مدرسة ام القرى الحرة | Umm Al -Thura Hurra School",
    "type": "School",
    "lat": 18.0982671,
    "lng": -15.9212836,
    "quartier": "33XH+57W, Nouakchott",
    "created_at": "2025-07-16T15:13:59.469076",
    "google_place_id": "ChIJrd2ICQBTlg4Rwz6s-q6lEaM",
    "rating": null,
    "address": "33XH+57W, Nouakchott"
  },
  {
    "id": 206,
    "name": "مدرسة الأخيار الحديثة | Al -akhayar Modern School",
    "type": "School",
    "lat": 18.0744118,
    "lng": -15.9359278,
    "quartier": "33F7+QJ8, Unnamed Road, Nouakchott",
    "created_at": "2025-07-16T15:13:59.469076",
    "google_place_id": "ChIJNUCYnB1Tlg4R9JL2Odx8W9E",
    "rating": 5,
    "address": "33F7+QJ8, Unnamed Road, Nouakchott"
  },
  {
    "id": 207,
    "name": "مدرسة الشیخ ماالعینین | Sheikh Al -Sinin School",
    "type": "School",
    "lat": 18.067652,
    "lng": -15.896847,
    "quartier": "3493+376, Nouakchott",
    "created_at": "2025-07-16T15:13:59.469076",
    "google_place_id": "ChIJB4ymw2xTlg4RIE24-kklCGA",
    "rating": null,
    "address": "3493+376, Nouakchott"
  },
  {
    "id": 208,
    "name": "مدارس الامتياز الخاصة (أحمد باب) | Écoles de concession privées (Ahmed Bab)",
    "type": "School",
    "lat": 18.0654417,
    "lng": -15.8985544,
    "quartier": "3482+24, Nouakchott",
    "created_at": "2025-07-16T15:13:59.469076",
    "google_place_id": "ChIJraQjK1FTlg4RFITwFtC1DNA",
    "rating": null,
    "address": "3482+24, Nouakchott"
  },
  {
    "id": 209,
    "name": "Mauritanie HUJJAJ.SA | موريتاني هووجاج",
    "type": "School",
    "lat": 18.0817586,
    "lng": -15.9365502,
    "quartier": "CINEMA SAADA, BASRA, Nouakchott",
    "created_at": "2025-07-16T15:13:59.469076",
    "google_place_id": "ChIJ4Rp5XGRTlg4RNHWzb1-XcZc",
    "rating": null,
    "address": "CINEMA SAADA, BASRA, Nouakchott"
  },
  {
    "id": 210,
    "name": "مدرسة الزهراء | École al -zahraa",
    "type": "School",
    "lat": 18.0837197,
    "lng": -15.9367799,
    "quartier": "33M7+F7Q, Nouakchott",
    "created_at": "2025-07-16T15:13:59.469076",
    "google_place_id": "ChIJlUDT8yFTlg4RXrofQwixcqY",
    "rating": 4.6,
    "address": "33M7+F7Q, Nouakchott"
  },
  {
    "id": 211,
    "name": "مدرسة طارق الإعدادية | École préparatoire de Tariq",
    "type": "School",
    "lat": 18.0635497,
    "lng": -15.8992097,
    "quartier": "3472+C87, نواكشوط",
    "created_at": "2025-07-16T15:13:59.469076",
    "google_place_id": "ChIJvzsDBn1Tlg4RA2MRscMLEGo",
    "rating": 1,
    "address": "3472+C87, نواكشوط"
  },
  {
    "id": 212,
    "name": "روضة الاستقامة | Justification de la maternelle",
    "type": "School",
    "lat": 18.0952979,
    "lng": -15.9298086,
    "quartier": "33WC+438, نواكشوط،",
    "created_at": "2025-07-16T15:13:59.469076",
    "google_place_id": "ChIJ9Yry4ytTlg4RHYqKjNO2qy0",
    "rating": 5,
    "address": "33WC+438, نواكشوط،"
  },
  {
    "id": 213,
    "name": "روضة ومحظرة | Jardin d'enfants et interdit",
    "type": "School",
    "lat": 18.0937784,
    "lng": -15.9315746,
    "quartier": "33V8+MRF, Nouakchott",
    "created_at": "2025-07-16T15:13:59.469076",
    "google_place_id": "ChIJU3L3FUdTlg4RNz9iZSjC1cY",
    "rating": 4,
    "address": "33V8+MRF, Nouakchott"
  },
  {
    "id": 214,
    "name": "محظرة ابن عباس للعلوم الشرعية | Ibn Abbas a interdit les sciences juridiques",
    "type": "School",
    "lat": 18.0998289,
    "lng": -15.921228,
    "quartier": "33XH+WGJ, Nouakchott",
    "created_at": "2025-07-16T15:13:59.469076",
    "google_place_id": "ChIJszA3ixlTlg4RvmTuB5NKKGg",
    "rating": null,
    "address": "33XH+WGJ, Nouakchott"
  },
  {
    "id": 215,
    "name": "مجمع مدارس مفتاح النجاح الحره | Succès gratuit complexe des écoles moftah",
    "type": "School",
    "lat": 18.1005163,
    "lng": -15.9112424,
    "quartier": "432Q+6G2",
    "created_at": "2025-07-16T15:13:59.469076",
    "google_place_id": "ChIJQ4XTMQBTlg4RGXqca2pxp1I",
    "rating": null,
    "address": "432Q+6G2"
  },
  {
    "id": 216,
    "name": "مدرسة الشهيد سيدي ولد مولاي الزين | L'école Martyr Sidi ould Moulay Al -zain",
    "type": "School",
    "lat": 18.0616284,
    "lng": -15.9297007,
    "quartier": "336C+M43, Nouakchott",
    "created_at": "2025-07-16T15:13:59.469076",
    "google_place_id": "ChIJp2vjfwBTlg4RKNaKrtNSvgY",
    "rating": 4.4,
    "address": "336C+M43, Nouakchott"
  },
  {
    "id": 217,
    "name": "نبوي ولد محمد | Nabawi ould Muhammad",
    "type": "School",
    "lat": 18.0612352,
    "lng": -15.9006554,
    "quartier": "3462+56V, Nouakchott",
    "created_at": "2025-07-16T15:13:59.469076",
    "google_place_id": "ChIJnw2XKQBTlg4RCUXP4jiNjB0",
    "rating": null,
    "address": "3462+56V, Nouakchott"
  },
  {
    "id": 218,
    "name": "مدرسة عمار | École Ammar",
    "type": "School",
    "lat": 18.0671292,
    "lng": -15.9349488,
    "quartier": "3388+V32, Nouakchott",
    "created_at": "2025-07-16T15:13:59.469076",
    "google_place_id": "ChIJjZj2lZJTlg4RzM8zuAHPAfw",
    "rating": null,
    "address": "3388+V32, Nouakchott"
  },
  {
    "id": 219,
    "name": "ABOUHOUREIRA SCHOOL | مدرسة أبوهوريرا",
    "type": "School",
    "lat": 18.0931655,
    "lng": -15.9334284,
    "quartier": "33V8+7JP",
    "created_at": "2025-07-16T15:13:59.469076",
    "google_place_id": "ChIJKS22kItTlg4RT3TPLrSvxuQ",
    "rating": null,
    "address": "33V8+7JP"
  },
  {
    "id": 220,
    "name": "مدرسة الإمام أحمد | École d'imam Ahmad",
    "type": "School",
    "lat": 18.0984932,
    "lng": -15.9275073,
    "quartier": "33XC+9XX, نواكشوط،",
    "created_at": "2025-07-16T15:13:59.469076",
    "google_place_id": "ChIJ32eFaS1Tlg4RE42PM97Hofo",
    "rating": null,
    "address": "33XC+9XX, نواكشوط،"
  },
  {
    "id": 221,
    "name": "Lycée Les Meharees | Lycée Les Meharees",
    "type": "School",
    "lat": 18.1152138,
    "lng": -15.9907965,
    "quartier": "4285+3MP",
    "created_at": "2025-07-16T15:13:59.469076",
    "google_place_id": "ChIJX1ystUdNlg4RyvATiaFVFEk",
    "rating": 3.3,
    "address": "4285+3MP"
  },
  {
    "id": 222,
    "name": "Lycée Talent de Mauritanie - Yahya Hamidoune | مدرسة موريتانيا للمواهب الثانوية - يحيى حميدوون",
    "type": "School",
    "lat": 18.1324039,
    "lng": -16.0025199,
    "quartier": "4XJX+Q4F, Nouakchott",
    "created_at": "2025-07-16T15:13:59.469076",
    "google_place_id": "ChIJFwB_AgCzlw4RjcGiSVa3RoE",
    "rating": null,
    "address": "4XJX+Q4F, Nouakchott"
  },
  {
    "id": 223,
    "name": "Ecole Tevragh zeina 3 (en construction) | مدرسة Tevragh Zein 3 (في المبنى)",
    "type": "School",
    "lat": 18.1305948,
    "lng": -15.9992464,
    "quartier": "42J2+68J",
    "created_at": "2025-07-16T15:13:59.469076",
    "google_place_id": "ChIJzUdgNwWzlw4Rfx0A3qP1xIg",
    "rating": 4,
    "address": "42J2+68J"
  },
  {
    "id": 224,
    "name": "Ecole privée la fontaine nouakchott | مدرسة خاصة لا فونتين نوكتشوت",
    "type": "School",
    "lat": 18.1288746,
    "lng": -15.9986512,
    "quartier": "bp222",
    "created_at": "2025-07-16T15:13:59.469076",
    "google_place_id": "ChIJ0QE93nJNlg4R1-aHKzikow8",
    "rating": null,
    "address": "bp222"
  },
  {
    "id": 225,
    "name": "مدرسة منبع الفضيلة | École Manda Al -Fadila",
    "type": "School",
    "lat": 18.1268888,
    "lng": -15.9976048,
    "quartier": "42G2+QX2, Nouakchott",
    "created_at": "2025-07-16T15:13:59.469076",
    "google_place_id": "ChIJkSi0eCJNlg4RHISQs6Pg_xU",
    "rating": 4.7,
    "address": "42G2+QX2, Nouakchott"
  },
  {
    "id": 226,
    "name": "ÉCOLE PRIVÉE MENABI EL OULOULM ÉLÉMENTAIRE | مدرسة خاصة مينابي إل أولولم الابتدائية",
    "type": "School",
    "lat": 18.1204104,
    "lng": -15.9991826,
    "quartier": "42C2+588, Nouakchott",
    "created_at": "2025-07-16T15:13:59.469076",
    "google_place_id": "ChIJzV_BUgBNlg4R5vb5VTPx8Qw",
    "rating": 5,
    "address": "42C2+588, Nouakchott"
  },
  {
    "id": 227,
    "name": "دارمحمد | دارمحمدtes",
    "type": "School",
    "lat": 18.1276739,
    "lng": -15.9967475,
    "quartier": "42G3+W54, Nouakchott",
    "created_at": "2025-07-16T15:13:59.469076",
    "google_place_id": "ChIJc1eYWQBNlg4RVYJqs0zlyF8",
    "rating": null,
    "address": "42G3+W54, Nouakchott"
  },
  {
    "id": 228,
    "name": "مجمع مدارس الاهالي الحرة | Complexe scolaire des parents gratuits",
    "type": "School",
    "lat": 18.1310429,
    "lng": -15.9965668,
    "quartier": "42J3+7C7, Nouakchott",
    "created_at": "2025-07-16T15:13:59.469076",
    "google_place_id": "ChIJPRGuyvWzlw4RYzNlE2JkyDQ",
    "rating": null,
    "address": "42J3+7C7, Nouakchott"
  },
  {
    "id": 229,
    "name": "Lycée privé El Ahaly | المدرسة الثانوية الخاصة El Ahaly",
    "type": "School",
    "lat": 18.1306625,
    "lng": -15.9964531,
    "quartier": "42J3+7C7, Nouakchott",
    "created_at": "2025-07-16T15:13:59.469076",
    "google_place_id": "ChIJO3FHHsSzlw4RkOB5KRQgyC0",
    "rating": null,
    "address": "42J3+7C7, Nouakchott"
  },
  {
    "id": 230,
    "name": "Ecole 5 | Ecole 5",
    "type": "School",
    "lat": 18.1196695,
    "lng": -15.998041,
    "quartier": "4292+VQ8, Boutilimit",
    "created_at": "2025-07-16T15:13:59.469076",
    "google_place_id": "ChIJ-yJLOQBNlg4R9JafQMuDvRw",
    "rating": null,
    "address": "4292+VQ8, Boutilimit"
  },
  {
    "id": 231,
    "name": "École Privée Menabi El Ouloum | المدرسة الخاصة مينابي إل أولوم",
    "type": "School",
    "lat": 18.1166367,
    "lng": -15.9994229,
    "quartier": "4282+M64",
    "created_at": "2025-07-16T15:13:59.469076",
    "google_place_id": "ChIJ20zQrDBNlg4RtGmeFsniSYk",
    "rating": 3.4,
    "address": "4282+M64"
  },
  {
    "id": 232,
    "name": "محظرة ذي النورين | L'interdiction de dhu al -nourin",
    "type": "School",
    "lat": 18.130289,
    "lng": -15.9941822,
    "quartier": "42J4+488, تفرغ زينة، نواكشوط،, Nouakchott",
    "created_at": "2025-07-16T15:13:59.469076",
    "google_place_id": "ChIJKYepPLCzlw4RufA9LexV9js",
    "rating": 5,
    "address": "42J4+488, تفرغ زينة، نواكشوط،, Nouakchott"
  },
  {
    "id": 233,
    "name": "Mahdara Seniye Abdellahi محظرة سنية عبد الله | Maahdara Seniye Abdellahi est interdite de Sunni Abdullah",
    "type": "School",
    "lat": 18.1149023,
    "lng": -15.9981835,
    "quartier": "4272+XP8, Unnamed Road, Nouakchott",
    "created_at": "2025-07-16T15:13:59.469076",
    "google_place_id": "ChIJ30obptRNlg4RbbI33OVYvS4",
    "rating": 5,
    "address": "4272+XP8, Unnamed Road, Nouakchott"
  },
  {
    "id": 234,
    "name": "School of Excellence | كلية التميز",
    "type": "School",
    "lat": 18.116783,
    "lng": -15.996543,
    "quartier": "4283+P98",
    "created_at": "2025-07-16T15:13:59.469076",
    "google_place_id": "ChIJL4vBeDdNlg4RcV9tDAkuJ3o",
    "rating": 3.5,
    "address": "4283+P98"
  },
  {
    "id": 235,
    "name": "مدارس المنابع | Écoles de football",
    "type": "School",
    "lat": 18.1157579,
    "lng": -15.9971931,
    "quartier": "4283+84, نواكشوط،",
    "created_at": "2025-07-16T15:13:59.469076",
    "google_place_id": "ChIJWfH7qTpNlg4R84Y6Kndu13A",
    "rating": null,
    "address": "4283+84, نواكشوط،"
  },
  {
    "id": 236,
    "name": "مدارس موارد النجاح الحرة | Écoles de ressources de réussite gratuites",
    "type": "School",
    "lat": 18.1227016,
    "lng": -15.9915836,
    "quartier": "42F5+39M, Rue Fadh Ben Abdel Aziz, نواكشوط",
    "created_at": "2025-07-16T15:13:59.469076",
    "google_place_id": "ChIJMXsxFcVNlg4ReOs_DdqfFFI",
    "rating": 4.7,
    "address": "42F5+39M, Rue Fadh Ben Abdel Aziz, نواكشوط"
  },
  {
    "id": 237,
    "name": "محظرة الطالب لتحفيظ القرآن الكريم | L'étudiant est interdit de mémoriser le Saint Coran",
    "type": "School",
    "lat": 18.1169089,
    "lng": -15.9938672,
    "quartier": "4284+QF6, Rue Fadh Ben Abdel Aziz, نواكشوط",
    "created_at": "2025-07-16T15:13:59.469076",
    "google_place_id": "ChIJi5AfOs9Nlg4RH0PuCo4B964",
    "rating": null,
    "address": "4284+QF6, Rue Fadh Ben Abdel Aziz, نواكشوط"
  },
  {
    "id": 238,
    "name": "مدارس الكنانة | Écoles de kinana",
    "type": "School",
    "lat": 18.1518842,
    "lng": -16.0094211,
    "quartier": "5X2R+Q64, نواكشوط الغربية،, Jreida",
    "created_at": "2025-07-16T15:13:59.469076",
    "google_place_id": "ChIJ8WOhJzqzlw4RoLMUX_wFuGE",
    "rating": 5,
    "address": "5X2R+Q64, نواكشوط الغربية،, Jreida"
  },
  {
    "id": 239,
    "name": "مدرسة آفاق المستقبل الحرة | École de prospects futurs gratuits",
    "type": "School",
    "lat": 18.1186047,
    "lng": -15.9924342,
    "quartier": "4295+J3R, Nouakchott",
    "created_at": "2025-07-16T15:13:59.469076",
    "google_place_id": "ChIJ50vXNABNlg4RWY78sNZp3sU",
    "rating": null,
    "address": "4295+J3R, Nouakchott"
  },
  {
    "id": 240,
    "name": "ثانوية ‏‏ ‏المعاريف ‏تفرغ زينة | Al Maariv High",
    "type": "School",
    "lat": 18.110344,
    "lng": -15.9993672,
    "quartier": "4262+47J, Nouakchott",
    "created_at": "2025-07-16T15:13:59.469076",
    "google_place_id": "ChIJ9cU_KwBNlg4RdUkxyy--3D8",
    "rating": null,
    "address": "4262+47J, Nouakchott"
  },
  {
    "id": 241,
    "name": "Nouvelle vision | رؤية جديدة",
    "type": "School",
    "lat": 18.110344,
    "lng": -15.9993672,
    "quartier": "Ilot O N° 63, Nouakchott",
    "created_at": "2025-07-16T15:13:59.469076",
    "google_place_id": "ChIJPTi5O4NNlg4RMpQntMUBKo8",
    "rating": null,
    "address": "Ilot O N° 63, Nouakchott"
  },
  {
    "id": 242,
    "name": "مدرسة ريم | École reem",
    "type": "School",
    "lat": 18.110344,
    "lng": -15.9993672,
    "quartier": "4262+47J, Nouakchott",
    "created_at": "2025-07-16T15:13:59.469076",
    "google_place_id": "ChIJY_ekBvZNlg4RT2GC3ByfUB4",
    "rating": 4.3,
    "address": "4262+47J, Nouakchott"
  },
  {
    "id": 243,
    "name": "Groupe scolaire bilingue La Rochelle | مجموعة مدرسة ثنائية اللغة La Rochelle",
    "type": "School",
    "lat": 18.1100541,
    "lng": -15.9997339,
    "quartier": "4262+24C",
    "created_at": "2025-07-16T15:13:59.469076",
    "google_place_id": "ChIJx370AC5Nlg4RWLmN5DntwWA",
    "rating": 5,
    "address": "4262+24C"
  },
  {
    "id": 244,
    "name": "Groupe Educatif Descartes | مجموعة ديكارت التعليمية",
    "type": "School",
    "lat": 18.1073485,
    "lng": -16.0036984,
    "quartier": "Tevragh Zeina AT258, Nouakchott",
    "created_at": "2025-07-16T15:13:59.469076",
    "google_place_id": "ChIJG_BHqWRNlg4RlBZ8YzIqRlI",
    "rating": 5,
    "address": "Tevragh Zeina AT258, Nouakchott"
  },
  {
    "id": 245,
    "name": "AMTED ECOLE PRİVE İNTERNAT | amted ecole prive ̇ternat",
    "type": "School",
    "lat": 18.1441699,
    "lng": -15.994936,
    "quartier": "42V4+M28, Jreida",
    "created_at": "2025-07-16T15:13:59.469076",
    "google_place_id": "ChIJPZysQMeylw4RZf2eQ6-qsDE",
    "rating": 5,
    "address": "42V4+M28, Jreida"
  },
  {
    "id": 246,
    "name": "محظرة خديجة بنت خويلد عين الطلح | Le Khadija Bint Khuwaylid Ain al -Talha",
    "type": "School",
    "lat": 18.1331696,
    "lng": -15.9889632,
    "quartier": "42M6+7C7",
    "created_at": "2025-07-16T15:13:59.469076",
    "google_place_id": "ChIJBWUFhKOzlw4RVYZ9YsFHtq8",
    "rating": 1,
    "address": "42M6+7C7"
  },
  {
    "id": 247,
    "name": "Ecole Maternelle le coin des petits | مدرسة الحضانة Le Coin des Petits",
    "type": "School",
    "lat": 18.10894769999999,
    "lng": -15.9985872,
    "quartier": "N 2, N2, Nouakchott",
    "created_at": "2025-07-16T15:13:59.469076",
    "google_place_id": "ChIJm0vnJOFNlg4RPZveVvEHluk",
    "rating": null,
    "address": "N 2, N2, Nouakchott"
  },
  {
    "id": 248,
    "name": "Ecole Khaled مدرسة خالد | École khaled ecoléchée",
    "type": "School",
    "lat": 18.1141789,
    "lng": -15.9932239,
    "quartier": "Not 700, Nouakchott",
    "created_at": "2025-07-16T15:13:59.469076",
    "google_place_id": "ChIJn2RZyuJNlg4Rl3RtdejHi2g",
    "rating": 4,
    "address": "Not 700, Nouakchott"
  },
  {
    "id": 249,
    "name": "محظرة نور على نور | Nour est interdit de nour",
    "type": "School",
    "lat": 18.130616,
    "lng": -15.9877104,
    "quartier": "42H6+8H4, Nouakchott",
    "created_at": "2025-07-16T15:13:59.469076",
    "google_place_id": "ChIJMbt2sIGzlw4R5U7GsV6IP-o",
    "rating": 1,
    "address": "42H6+8H4, Nouakchott"
  },
  {
    "id": 250,
    "name": "مدرسة دولية اعمال | École de commerce internationale",
    "type": "School",
    "lat": 18.1146125,
    "lng": -15.9917344,
    "quartier": "4275+R8R, Rue Fadh Ben Abdel Aziz, Nouakchott",
    "created_at": "2025-07-16T15:13:59.475829",
    "google_place_id": "ChIJr2GXJgBNlg4RAQ_AL_MzLug",
    "rating": null,
    "address": "4275+R8R, Rue Fadh Ben Abdel Aziz, Nouakchott"
  },
  {
    "id": 251,
    "name": "اعدادية وثانوية النجوم للبنات | Préparation et étoiles secondaires pour les filles",
    "type": "School",
    "lat": 18.1077891,
    "lng": -15.9980042,
    "quartier": "4252+4Q9, Las Palmas، نواكشوط،, Nouakchott",
    "created_at": "2025-07-16T15:13:59.475829",
    "google_place_id": "ChIJ11ugYVpNlg4RUlAgrNa9Qxg",
    "rating": 5,
    "address": "4252+4Q9, Las Palmas، نواكشوط،, Nouakchott"
  },
  {
    "id": 252,
    "name": "Centre de mathématiques | مركز الرياضيات",
    "type": "School",
    "lat": 18.1097039,
    "lng": -15.9956301,
    "quartier": "4263+5R6, Nouakchott",
    "created_at": "2025-07-16T15:13:59.475829",
    "google_place_id": "ChIJgQlNdgBNlg4RsBjhiMHNHAo",
    "rating": null,
    "address": "4263+5R6, Nouakchott"
  },
  {
    "id": 253,
    "name": "École Noujoum | مدرسة نوجوم",
    "type": "School",
    "lat": 18.1076858,
    "lng": -15.997871,
    "quartier": "4252+3VC",
    "created_at": "2025-07-16T15:13:59.475829",
    "google_place_id": "ChIJPV3UyuRNlg4RhXcYGivrwqY",
    "rating": 5,
    "address": "4252+3VC"
  },
  {
    "id": 254,
    "name": "École International de Nouakchott | مدرسة Nouakchott الدولية",
    "type": "School",
    "lat": 18.1085233,
    "lng": -15.9965833,
    "quartier": "4253+C93",
    "created_at": "2025-07-16T15:13:59.475829",
    "google_place_id": "ChIJJQeOPDZNlg4R5DzInGDz4C8",
    "rating": 4.3,
    "address": "4253+C93"
  },
  {
    "id": 255,
    "name": "TLC International School, Nouakchott | مدرسة TLC الدولية ، Nouakchott",
    "type": "School",
    "lat": 18.1088509,
    "lng": -15.9653788,
    "quartier": "425M+GRX",
    "created_at": "2025-07-16T15:13:59.475829",
    "google_place_id": "ChIJp24m66FSlg4RA5xA_6_ulCg",
    "rating": null,
    "address": "425M+GRX"
  },
  {
    "id": 256,
    "name": "Écoles Bilal Elwely | مدارس بلال إيلوي",
    "type": "School",
    "lat": 18.1145432,
    "lng": -15.9478703,
    "quartier": "4372+RV6",
    "created_at": "2025-07-16T15:13:59.475829",
    "google_place_id": "ChIJaZ-MSr9Slg4Rx9FPcRMO3Qg",
    "rating": 4.6,
    "address": "4372+RV6"
  },
  {
    "id": 257,
    "name": "مدرسة زمزم | École Zamzam",
    "type": "School",
    "lat": 18.1245442,
    "lng": -15.9378081,
    "quartier": "43F6+RV8, ecole zem_zem, Nouakchott",
    "created_at": "2025-07-16T15:13:59.475829",
    "google_place_id": "ChIJc73S-M5Slg4RMo1iqaxwyxw",
    "rating": 4,
    "address": "43F6+RV8, ecole zem_zem, Nouakchott"
  },
  {
    "id": 258,
    "name": "مدرسة النورية / محظرت تركي | Al -Nuria School / Mohsat Turki",
    "type": "School",
    "lat": 18.1280625,
    "lng": -15.9651875,
    "quartier": "42HM+6WF, ط شارع صكوك, Nouakchott",
    "created_at": "2025-07-16T15:13:59.475829",
    "google_place_id": "ChIJe1V0OvhTlg4ReoqmxFP9PzQ",
    "rating": 4.6,
    "address": "42HM+6WF, ط شارع صكوك, Nouakchott"
  },
  {
    "id": 259,
    "name": "مدارس زمزم الصحراوي | Écoles du désert de Zamzam",
    "type": "School",
    "lat": 18.1300484,
    "lng": -15.9681179,
    "quartier": "42JJ+2Q6, Nouakchott",
    "created_at": "2025-07-16T15:13:59.475829",
    "google_place_id": "ChIJMcGSO85Tlg4RBnYHBLXZJd4",
    "rating": 3,
    "address": "42JJ+2Q6, Nouakchott"
  },
  {
    "id": 260,
    "name": "Complexe scolaire Mariem Dedde (COSMADE) Lamartine | ماريم ديدي (كوزمدي) مجمع المدارس لامارتين",
    "type": "School",
    "lat": 18.1266897,
    "lng": -15.9616619,
    "quartier": "42GQ+M8G, طريق صكوك, Nouakchott",
    "created_at": "2025-07-16T15:13:59.475829",
    "google_place_id": "ChIJi3h4tzlTlg4RmB6f5VBL9_0",
    "rating": 4.5,
    "address": "42GQ+M8G, طريق صكوك, Nouakchott"
  },
  {
    "id": 261,
    "name": "مدارس زمزم / تفرغ زينه | Écoles de Zamzam / Tafar Zaina",
    "type": "School",
    "lat": 18.1331617,
    "lng": -15.9670716,
    "quartier": "42MM+H43, Jreida",
    "created_at": "2025-07-16T15:13:59.475829",
    "google_place_id": "ChIJWfPw2_Wtlw4RqZa3ph_xGpQ",
    "rating": 4.3,
    "address": "42MM+H43, Jreida"
  },
  {
    "id": 262,
    "name": "محظرة التبيان | Interdit",
    "type": "School",
    "lat": 18.1374459,
    "lng": -15.9645161,
    "quartier": "42PP+J5, Jreida",
    "created_at": "2025-07-16T15:13:59.475829",
    "google_place_id": "ChIJdxpyBQCtlw4RusbuFaW4PqE",
    "rating": null,
    "address": "42PP+J5, Jreida"
  },
  {
    "id": 263,
    "name": "الساحة الحرية | Square",
    "type": "School",
    "lat": 18.122,
    "lng": -15.9712,
    "quartier": "42CH+PJX, Nouakchott",
    "created_at": "2025-07-16T15:13:59.475829",
    "google_place_id": "ChIJ82acWABNlg4ReIbaNSLLrg4",
    "rating": null,
    "address": "42CH+PJX, Nouakchott"
  },
  {
    "id": 264,
    "name": "AbdallahiNoueigith | عبد الله",
    "type": "School",
    "lat": 18.122656,
    "lng": -15.9724058,
    "quartier": "42FG+8WF, Nouakchott",
    "created_at": "2025-07-16T15:13:59.475829",
    "google_place_id": "ChIJ5-p1UgBNlg4RS_zkpnerE4o",
    "rating": 5,
    "address": "42FG+8WF, Nouakchott"
  },
  {
    "id": 265,
    "name": "Lycée Iman | مدرسة إيمان الثانوية",
    "type": "School",
    "lat": 18.1193873,
    "lng": -15.9653043,
    "quartier": "Unnamed Road, Nouakchott",
    "created_at": "2025-07-16T15:13:59.475829",
    "google_place_id": "ChIJpch8jc1Nlg4Rz0ooLf3-rFU",
    "rating": 4.3,
    "address": "Unnamed Road, Nouakchott"
  },
  {
    "id": 266,
    "name": "مكان التلميذي | Placer l'étudiant",
    "type": "School",
    "lat": 18.1387144,
    "lng": -15.9647304,
    "quartier": "42QP+F4J, 42QP+H24،",
    "created_at": "2025-07-16T15:13:59.475829",
    "google_place_id": "ChIJsTkBTuGtlw4RCdhsBFKb_bw",
    "rating": null,
    "address": "42QP+F4J, 42QP+H24،"
  },
  {
    "id": 267,
    "name": "محظرة الرضوان النموذجية | Le radwan typique interdit",
    "type": "School",
    "lat": 18.1214197,
    "lng": -15.9720481,
    "quartier": "42CH+H58, Nouakchott",
    "created_at": "2025-07-16T15:13:59.475829",
    "google_place_id": "ChIJrRCrbXJNlg4RmGmkId3hfmo",
    "rating": 1,
    "address": "42CH+H58, Nouakchott"
  },
  {
    "id": 268,
    "name": "مجمع مدارس الإمام الغزالي | Imam Al -Ghazali Complexe des écoles",
    "type": "School",
    "lat": 18.1184952,
    "lng": -15.9636794,
    "quartier": "429P+4MG, Nouakchott",
    "created_at": "2025-07-16T15:13:59.475829",
    "google_place_id": "ChIJdRtnQ0BTlg4RvEAb1gsfanQ",
    "rating": 3.7,
    "address": "429P+4MG, Nouakchott"
  },
  {
    "id": 269,
    "name": "AMTED Süleymaniye kız kursu | دورة الفتاة سليمانانياي",
    "type": "School",
    "lat": 18.118502,
    "lng": -15.967998,
    "quartier": "429J+CR2, Nouakchott",
    "created_at": "2025-07-16T15:13:59.475829",
    "google_place_id": "ChIJnfwQ2adSlg4RGdgaobi3RV0",
    "rating": 5,
    "address": "429J+CR2, Nouakchott"
  },
  {
    "id": 270,
    "name": "EL-MESSAR | الكتلة",
    "type": "School",
    "lat": 18.1211746,
    "lng": -15.9741301,
    "quartier": "42CG+F89, Unnamed Road, Nouakchott",
    "created_at": "2025-07-16T15:13:59.475829",
    "google_place_id": "ChIJ_xOAMkhNlg4RWFSLjBbkoLk",
    "rating": 5,
    "address": "42CG+F89, Unnamed Road, Nouakchott"
  },
  {
    "id": 271,
    "name": "مدارس المحمدية الحديثة | Écoles modernes de Muhammadiyah",
    "type": "School",
    "lat": 18.1313075,
    "lng": -15.9525416,
    "quartier": "42JW+GXG, نواكشوط،",
    "created_at": "2025-07-16T15:13:59.475829",
    "google_place_id": "ChIJyU3ZSvBTlg4RpGqKGNu3FpY",
    "rating": null,
    "address": "42JW+GXG, نواكشوط،"
  },
  {
    "id": 272,
    "name": "نيمروات سيدين | Nimrwat Sidin",
    "type": "School",
    "lat": 18.1222746,
    "lng": -15.9544136,
    "quartier": "42CW+W64, نواكشوط الغربية،،, Nouakchott",
    "created_at": "2025-07-16T15:13:59.475829",
    "google_place_id": "ChIJrREtu-BTlg4RT1GRPOTYd0I",
    "rating": null,
    "address": "42CW+W64, نواكشوط الغربية،،, Nouakchott"
  },
  {
    "id": 273,
    "name": "مجمع مدارس مريم داداه | Complexe des écoles de Maryam Dadah",
    "type": "School",
    "lat": 18.1318414,
    "lng": -15.95260059999999,
    "quartier": "42GQ+MC8, طريق صكوك،, نواكشوط",
    "created_at": "2025-07-16T15:13:59.475829",
    "google_place_id": "ChIJ_6Q_IkGtlw4Rd6BE4_MSC78",
    "rating": null,
    "address": "42GQ+MC8, طريق صكوك،, نواكشوط"
  },
  {
    "id": 274,
    "name": "Dar Ehl Ikhlih | Dar Ehl Ikhlih",
    "type": "School",
    "lat": 18.1306476,
    "lng": -15.9514697,
    "quartier": "42JX+7C2, Nouakchott",
    "created_at": "2025-07-16T15:13:59.475829",
    "google_place_id": "ChIJi6zJxh1Tlg4R__EYziN1IgI",
    "rating": 5,
    "address": "42JX+7C2, Nouakchott"
  },
  {
    "id": 275,
    "name": "Mosaïque Mondiale | الفسيفساء العالمية",
    "type": "School",
    "lat": 18.1168534,
    "lng": -15.9602641,
    "quartier": "428Q+PVX, Nouakchott",
    "created_at": "2025-07-16T15:13:59.475829",
    "google_place_id": "ChIJ63FDSwBTlg4Re7GkS37JStI",
    "rating": 5,
    "address": "428Q+PVX, Nouakchott"
  },
  {
    "id": 276,
    "name": "EMI | emi",
    "type": "School",
    "lat": 18.1284043,
    "lng": -15.9787302,
    "quartier": "42HC+9G6, Nouakchott",
    "created_at": "2025-07-16T15:13:59.475829",
    "google_place_id": "ChIJTx4vdABNlg4Rll0OyIMggP0",
    "rating": null,
    "address": "42HC+9G6, Nouakchott"
  },
  {
    "id": 277,
    "name": "أهل السالك الزايد | Les gens de l'extra",
    "type": "School",
    "lat": 18.1204891,
    "lng": -15.9545626,
    "quartier": "42CW+55V, Nouakchott",
    "created_at": "2025-07-16T15:13:59.475829",
    "google_place_id": "ChIJMyvB019Tlg4RTHTIDzu_sVM",
    "rating": null,
    "address": "42CW+55V, Nouakchott"
  },
  {
    "id": 278,
    "name": "معهد إنارة لتعليم القرآن والعلوم الشرعية | Institut d'éclairage pour l'enseignement des sciences du Coran et de la Charia",
    "type": "School",
    "lat": 18.1232332,
    "lng": -15.9521808,
    "quartier": "42FX+74W, بيكين",
    "created_at": "2025-07-16T15:13:59.475829",
    "google_place_id": "ChIJNegeQgBTlg4RDRq7nVWQGA0",
    "rating": 5,
    "address": "42FX+74W, بيكين"
  },
  {
    "id": 279,
    "name": "مدارس القوافل الحرة | Écoles de convois gratuites",
    "type": "School",
    "lat": 18.1154114,
    "lng": -15.9613958,
    "quartier": "428Q+5C9, Unnamed Road، نواكشوط،, Nouakchott",
    "created_at": "2025-07-16T15:13:59.475829",
    "google_place_id": "ChIJJ2B94etTlg4RmmjlYI6_NHA",
    "rating": 3.7,
    "address": "428Q+5C9, Unnamed Road، نواكشوط،, Nouakchott"
  },